[{"name":"Aeropuerto de Madrid-Barajas Adolfo Su\u00e1rez","adress":"Avenida de la Hispanidad, s\/n","coordenadas":{"type":"Point","coordinates":[-3.5828701,40.4570698]}},{"name":"Objetos Perdidos Aeropuerto de Madrid Barajas","adress":"Calle Aeropuerto de Barajas, s\/n","coordenadas":{"type":"Point","coordinates":[-3.5777281,40.4506701]}},{"name":"Iberia Puente Aereo","adress":"Aeropuerto de Barajas Terminal 4","coordenadas":{"type":"Point","coordinates":[-3.5917845,40.4913111]}},{"name":"Aeropuerto de Madrid - Cuatro Vientos","adress":"Carretera Barrio de la Fortuna, s\/n","coordenadas":{"type":"Point","coordinates":[-3.7714895,40.365416]}},{"name":"Vip Sala Terminal 2","adress":"Avenida General, 43","coordenadas":{"type":"Point","coordinates":[-3.5798852,40.4710003]}}]