[{"index":0,"name":"AdventNet","category_code":"enterprise","Lugares":{"type":"Point","coordinates":[-121.904945,37.692934]},"clean_state":"success","founded_year":1996.0},{"index":1,"name":"Zoho","category_code":"software","Lugares":{"type":"Point","coordinates":[-121.904945,37.692934]},"clean_state":"success","founded_year":2005.0},{"index":2,"name":"Wetpaint","category_code":"web","Lugares":{"type":"Point","coordinates":[-122.333253,47.603122]},"clean_state":"success","founded_year":2005.0},{"index":2,"name":"Wetpaint","category_code":"web","Lugares":{"type":"Point","coordinates":[-73.9964312,40.7237306]},"clean_state":"success","founded_year":2005.0},{"index":3,"name":"Postini","category_code":"web","Lugares":{"type":"Point","coordinates":[-122.247573,37.506885]},"clean_state":"success","founded_year":1999.0},{"index":4,"name":"Omnidrive","category_code":"network_hosting","Lugares":null,"clean_state":"Invalid lat lat and long","founded_year":2005.0},{"index":6,"name":"Geni","category_code":"web","Lugares":{"type":"Point","coordinates":[-118.393064,34.090368]},"clean_state":"success","founded_year":2006.0},{"index":7,"name":"Digg","category_code":"news","Lugares":{"type":"Point","coordinates":[-122.394523,37.764726]},"clean_state":"success","founded_year":2004.0},{"index":8,"name":"Gizmoz","category_code":"web","Lugares":{"type":"Point","coordinates":[-122.169472,37.48413]},"clean_state":"success","founded_year":2003.0},{"index":10,"name":"Helio","category_code":"mobile","Lugares":{"type":"Point","coordinates":[-118.446596,34.057498]},"clean_state":"success","founded_year":2005.0},{"index":11,"name":"Fox Interactive Media","category_code":"web","Lugares":{"type":"Point","coordinates":[-118.39417,34.076179]},"clean_state":"success","founded_year":1979.0},{"index":12,"name":"StumbleUpon","category_code":"web","Lugares":{"type":"Point","coordinates":[-122.419204,37.775196]},"clean_state":"success","founded_year":2002.0},{"index":12,"name":"StumbleUpon","category_code":"web","Lugares":null,"clean_state":"Invalid lat lat and long","founded_year":2002.0},{"index":13,"name":"Slacker","category_code":"music","Lugares":{"type":"Point","coordinates":[-117.081406,33.022176]},"clean_state":"success","founded_year":2006.0},{"index":14,"name":"Scribd","category_code":"news","Lugares":{"type":"Point","coordinates":[-122.404052,37.789634]},"clean_state":"success","founded_year":2007.0},{"index":15,"name":"Babelgum","category_code":"games_video","Lugares":{"type":"Point","coordinates":[-6.267494,53.344104]},"clean_state":"success","founded_year":2007.0},{"index":16,"name":"Joost","category_code":"games_video","Lugares":{"type":"Point","coordinates":[-74.0094471,40.7464969]},"clean_state":"success","founded_year":2006.0},{"index":17,"name":"CBS","category_code":"news","Lugares":{"type":"Point","coordinates":[-119.306607,37.269175]},"clean_state":"success","founded_year":1986.0},{"index":18,"name":"MeetMoi","category_code":"social","Lugares":{"type":"Point","coordinates":[-73.985506,40.757929]},"clean_state":"success","founded_year":2007.0},{"index":19,"name":"Viacom","category_code":"web","Lugares":{"type":"Point","coordinates":[-73.986011,40.757725]},"clean_state":"success","founded_year":1971.0},{"index":20,"name":"Plaxo","category_code":"web","Lugares":{"type":"Point","coordinates":[-122.055197,37.387845]},"clean_state":"success","founded_year":2002.0},{"index":21,"name":"Twitter","category_code":"social","Lugares":{"type":"Point","coordinates":[-122.4169244,37.7768052]},"clean_state":"success","founded_year":2006.0},{"index":22,"name":"Powerset","category_code":"search","Lugares":{"type":"Point","coordinates":[-122.395289,37.778613]},"clean_state":"success","founded_year":2006.0},{"index":24,"name":"Technorati","category_code":"advertising","Lugares":{"type":"Point","coordinates":[-122.393041,37.779558]},"clean_state":"success","founded_year":2002.0},{"index":25,"name":"Mahalo","category_code":"web","Lugares":{"type":"Point","coordinates":[-118.487267,34.017606]},"clean_state":"success","founded_year":2007.0},{"index":26,"name":"Sparter","category_code":"games_video","Lugares":{"type":"Point","coordinates":[-95.712891,37.09024]},"clean_state":"success","founded_year":2007.0},{"index":27,"name":"Kyte","category_code":"games_video","Lugares":{"type":"Point","coordinates":[-122.409173,37.788482]},"clean_state":"success","founded_year":2006.0},{"index":28,"name":"Veoh","category_code":"games_video","Lugares":{"type":"Point","coordinates":[-117.20834,32.902266]},"clean_state":"success","founded_year":2004.0},{"index":29,"name":"AddThis","category_code":"advertising","Lugares":{"type":"Point","coordinates":[-77.245195,38.926172]},"clean_state":"success","founded_year":2004.0},{"index":29,"name":"AddThis","category_code":"advertising","Lugares":{"type":"Point","coordinates":[-73.996876,40.724604]},"clean_state":"success","founded_year":2004.0},{"index":29,"name":"AddThis","category_code":"advertising","Lugares":{"type":"Point","coordinates":[-118.380954,34.0263021]},"clean_state":"success","founded_year":2004.0},{"index":29,"name":"AddThis","category_code":"advertising","Lugares":null,"clean_state":"Invalid lat lat and long","founded_year":2004.0},{"index":29,"name":"AddThis","category_code":"advertising","Lugares":null,"clean_state":"Invalid lat lat and long","founded_year":2004.0},{"index":29,"name":"AddThis","category_code":"advertising","Lugares":{"type":"Point","coordinates":[-83.167884,42.557958]},"clean_state":"success","founded_year":2004.0},{"index":31,"name":"Thoof","category_code":"web","Lugares":{"type":"Point","coordinates":[-97.745209,30.268735]},"clean_state":"success","founded_year":2006.0},{"index":34,"name":"Meetup","category_code":"web","Lugares":{"type":"Point","coordinates":[-73.995722,40.72604]},"clean_state":"success","founded_year":2002.0},{"index":35,"name":"OpenX","category_code":"advertising","Lugares":{"type":"Point","coordinates":[-118.1327468,34.1494713]},"clean_state":"success","founded_year":2008.0},{"index":35,"name":"OpenX","category_code":"advertising","Lugares":null,"clean_state":"Invalid lat lat and long","founded_year":2008.0},{"index":35,"name":"OpenX","category_code":"advertising","Lugares":null,"clean_state":"Invalid lat lat and long","founded_year":2008.0},{"index":35,"name":"OpenX","category_code":"advertising","Lugares":null,"clean_state":"Invalid lat lat and long","founded_year":2008.0},{"index":35,"name":"OpenX","category_code":"advertising","Lugares":null,"clean_state":"Invalid lat lat and long","founded_year":2008.0},{"index":37,"name":"Jingle Networks","category_code":"mobile","Lugares":{"type":"Point","coordinates":[-122.173887,37.480999]},"clean_state":"success","founded_year":2005.0},{"index":38,"name":"Wesabe","category_code":"web","Lugares":{"type":"Point","coordinates":[-122.402567,37.793148]},"clean_state":"success","founded_year":2005.0},{"index":39,"name":"LifeLock","category_code":"security","Lugares":{"type":"Point","coordinates":[-111.938739,33.429859]},"clean_state":"success","founded_year":2005.0},{"index":40,"name":"SmugMug","category_code":"photo_video","Lugares":{"type":"Point","coordinates":[-122.067692,37.390056]},"clean_state":"success","founded_year":2002.0},{"index":41,"name":"Jangl SMS","category_code":"web","Lugares":{"type":"Point","coordinates":[-121.907768,37.697805]},"clean_state":"success","founded_year":2005.0},{"index":42,"name":"Prosper","category_code":"finance","Lugares":{"type":"Point","coordinates":[-122.402524,37.78976]},"clean_state":"success","founded_year":2006.0},{"index":44,"name":"eBay","category_code":"web","Lugares":{"type":"Point","coordinates":[-121.930035,37.295005]},"clean_state":"success","founded_year":1995.0},{"index":45,"name":"Facebook","category_code":"social","Lugares":{"type":"Point","coordinates":[-122.151801,37.41605]},"clean_state":"success","founded_year":2004.0},{"index":45,"name":"Facebook","category_code":"social","Lugares":{"type":"Point","coordinates":[-6.267494,53.344104]},"clean_state":"success","founded_year":2004.0},{"index":45,"name":"Facebook","category_code":"social","Lugares":{"type":"Point","coordinates":[-73.9792469,40.7557162]},"clean_state":"success","founded_year":2004.0},{"index":46,"name":"blogTV","category_code":"games_video","Lugares":{"type":"Point","coordinates":[34.851612,31.046051]},"clean_state":"success","founded_year":2006.0},{"index":47,"name":"Jajah","category_code":"mobile","Lugares":{"type":"Point","coordinates":[-122.0899512,37.4233896]},"clean_state":"success","founded_year":2005.0},{"index":48,"name":"Stickam","category_code":"games_video","Lugares":{"type":"Point","coordinates":[-118.254558,34.051409]},"clean_state":"success","founded_year":2006.0},{"index":49,"name":"AdaptiveBlue","category_code":"games_video","Lugares":{"type":"Point","coordinates":[-74.3372,40.801358]},"clean_state":"success","founded_year":2007.0},{"index":50,"name":"Ustream","category_code":"games_video","Lugares":{"type":"Point","coordinates":[-122.07948,37.392936]},"clean_state":"success","founded_year":2007.0},{"index":50,"name":"Ustream","category_code":"games_video","Lugares":null,"clean_state":"Invalid lat lat and long","founded_year":2007.0},{"index":50,"name":"Ustream","category_code":"games_video","Lugares":null,"clean_state":"Invalid lat lat and long","founded_year":2007.0},{"index":51,"name":"Pando Networks","category_code":"games_video","Lugares":{"type":"Point","coordinates":[-73.99873,40.722655]},"clean_state":"success","founded_year":2004.0},{"index":52,"name":"YouTube","category_code":"games_video","Lugares":{"type":"Point","coordinates":[-122.426804,37.627971]},"clean_state":"success","founded_year":2005.0},{"index":53,"name":"Ikan","category_code":"web","Lugares":{"type":"Point","coordinates":[-73.563878,41.049051]},"clean_state":"success","founded_year":2003.0},{"index":54,"name":"Skype","category_code":"software","Lugares":{"type":"Point","coordinates":[-0.131916,51.518132]},"clean_state":"success","founded_year":2003.0},{"index":54,"name":"Skype","category_code":"software","Lugares":null,"clean_state":"Invalid lat lat and long","founded_year":2003.0},{"index":54,"name":"Skype","category_code":"software","Lugares":null,"clean_state":"Invalid lat lat and long","founded_year":2003.0},{"index":55,"name":"delicious","category_code":"web","Lugares":null,"clean_state":"Invalid lat lat and long","founded_year":2003.0},{"index":56,"name":"GrandCentral","category_code":"mobile","Lugares":{"type":"Point","coordinates":[-121.932202,37.465645]},"clean_state":"success","founded_year":2006.0},{"index":57,"name":"Topix","category_code":"web","Lugares":{"type":"Point","coordinates":[-122.151198,37.44296]},"clean_state":"success","founded_year":2002.0},{"index":58,"name":"Livestream","category_code":"games_video","Lugares":{"type":"Point","coordinates":[-73.995625,40.726155]},"clean_state":"success","founded_year":2007.0},{"index":59,"name":"Pownce","category_code":"web","Lugares":{"type":"Point","coordinates":[-122.397224,37.762541]},"clean_state":"success","founded_year":2007.0},{"index":60,"name":"AllPeers","category_code":"web","Lugares":{"type":"Point","coordinates":[-1.255824,51.752276]},"clean_state":"success","founded_year":2004.0},{"index":61,"name":"CriticalMetrics","category_code":"web","Lugares":{"type":"Point","coordinates":[-119.306607,37.269175]},"clean_state":"success","founded_year":2007.0},{"index":62,"name":"Jobster","category_code":"search","Lugares":{"type":"Point","coordinates":[-122.357242,47.617682]},"clean_state":"success","founded_year":2004.0},{"index":63,"name":"ZenZui","category_code":"mobile","Lugares":{"type":"Point","coordinates":[-122.347533,47.620716]},"clean_state":"success","founded_year":2007.0},{"index":64,"name":"Revision3","category_code":"games_video","Lugares":{"type":"Point","coordinates":[-122.388243,37.757758]},"clean_state":"success","founded_year":2005.0},{"index":65,"name":"CastTV","category_code":"games_video","Lugares":{"type":"Point","coordinates":[-122.393913,37.780716]},"clean_state":"success","founded_year":2006.0},{"index":66,"name":"SodaHead","category_code":"web","Lugares":{"type":"Point","coordinates":[-119.306607,37.269175]},"clean_state":"success","founded_year":2007.0},{"index":67,"name":"Spock","category_code":"search","Lugares":{"type":"Point","coordinates":[-122.217964,37.488336]},"clean_state":"success","founded_year":2006.0},{"index":68,"name":"Wize","category_code":"ecommerce","Lugares":{"type":"Point","coordinates":[-122.302262,37.559287]},"clean_state":"success","founded_year":2006.0},{"index":69,"name":"iSkoot","category_code":"mobile","Lugares":{"type":"Point","coordinates":[-71.118487,42.375392]},"clean_state":"success","founded_year":2005.0},{"index":69,"name":"iSkoot","category_code":"mobile","Lugares":{"type":"Point","coordinates":[-122.396744,37.780134]},"clean_state":"success","founded_year":2005.0},{"index":70,"name":"EQO","category_code":"mobile","Lugares":{"type":"Point","coordinates":[-123.138565,49.263588]},"clean_state":"success","founded_year":2006.0},{"index":71,"name":"AllofMP3","category_code":"games_video","Lugares":{"type":"Point","coordinates":[37.617633,55.755786]},"clean_state":"success","founded_year":2000.0},{"index":72,"name":"SellABand","category_code":"games_video","Lugares":{"type":"Point","coordinates":[6.553452,51.808933]},"clean_state":"success","founded_year":2006.0},{"index":73,"name":"Steorn","category_code":"web","Lugares":{"type":"Point","coordinates":[-6.229255,53.354997]},"clean_state":"success","founded_year":2000.0},{"index":75,"name":"MeeVee","category_code":"games_video","Lugares":{"type":"Point","coordinates":[-122.341715,37.590339]},"clean_state":"success","founded_year":2000.0},{"index":76,"name":"iContact","category_code":"messaging","Lugares":null,"clean_state":"Invalid lat lat and long","founded_year":2003.0},{"index":77,"name":"Funny Or Die","category_code":"games_video","Lugares":{"type":"Point","coordinates":[-122.137444,37.421621]},"clean_state":"success","founded_year":2007.0},{"index":78,"name":"ClipBlast!","category_code":"web","Lugares":{"type":"Point","coordinates":[-118.756618,34.155211]},"clean_state":"success","founded_year":2005.0},{"index":79,"name":"blinkx","category_code":"games_video","Lugares":{"type":"Point","coordinates":[-122.395089,37.793819]},"clean_state":"success","founded_year":2004.0},{"index":80,"name":"Jaiku","category_code":"mobile","Lugares":{"type":"Point","coordinates":[24.93105,60.16377]},"clean_state":"success","founded_year":2006.0},{"index":81,"name":"Zlio","category_code":"ecommerce","Lugares":{"type":"Point","coordinates":[2.381836,48.862825]},"clean_state":"success","founded_year":2005.0},{"index":83,"name":"Spotplex","category_code":"web","Lugares":{"type":"Point","coordinates":[-121.940749,37.380101]},"clean_state":"success","founded_year":2007.0},{"index":84,"name":"Mashery","category_code":"enterprise","Lugares":{"type":"Point","coordinates":[-122.4038047,37.7870842]},"clean_state":"success","founded_year":2006.0},{"index":84,"name":"Mashery","category_code":"enterprise","Lugares":null,"clean_state":"Invalid lat lat and long","founded_year":2006.0},{"index":84,"name":"Mashery","category_code":"enterprise","Lugares":null,"clean_state":"Invalid lat lat and long","founded_year":2006.0},{"index":85,"name":"Yapta","category_code":"travel","Lugares":{"type":"Point","coordinates":[-122.334264,47.599925]},"clean_state":"success","founded_year":2007.0},{"index":85,"name":"Yapta","category_code":"travel","Lugares":null,"clean_state":"Invalid lat lat and long","founded_year":2007.0},{"index":86,"name":"TripUp","category_code":"web","Lugares":{"type":"Point","coordinates":[-118.243425,34.052187]},"clean_state":"success","founded_year":2006.0},{"index":87,"name":"Fleck","category_code":"web","Lugares":{"type":"Point","coordinates":[4.908556,52.375595]},"clean_state":"success","founded_year":2006.0},{"index":88,"name":"Wakoopa","category_code":"web","Lugares":{"type":"Point","coordinates":[4.8948623,52.3745228]},"clean_state":"success","founded_year":2007.0},{"index":89,"name":"Coghead","category_code":"web","Lugares":{"type":"Point","coordinates":[-122.221717,37.476479]},"clean_state":"success","founded_year":2003.0},{"index":90,"name":"Zamzar","category_code":"web","Lugares":{"type":"Point","coordinates":[-1.3610845,50.9444598]},"clean_state":"success","founded_year":2006.0},{"index":91,"name":"Yelp","category_code":"search","Lugares":{"type":"Point","coordinates":[-122.402195,37.786183]},"clean_state":"success","founded_year":2004.0},{"index":92,"name":"Zooomr","category_code":"web","Lugares":{"type":"Point","coordinates":[-122.419204,37.775196]},"clean_state":"success","founded_year":2006.0},{"index":93,"name":"Cisco","category_code":"network_hosting","Lugares":{"type":"Point","coordinates":[-121.95377,37.408802]},"clean_state":"success","founded_year":1984.0},{"index":94,"name":"SideStep","category_code":"web","Lugares":{"type":"Point","coordinates":[-121.977853,37.374998]},"clean_state":"success","founded_year":1999.0},{"index":95,"name":"Farecast","category_code":"search","Lugares":{"type":"Point","coordinates":[-122.359397,47.620982]},"clean_state":"success","founded_year":2003.0},{"index":96,"name":"ConVerdge","category_code":"enterprise","Lugares":{"type":"Point","coordinates":[-118.495155,34.0126379]},"clean_state":"success","founded_year":2006.0},{"index":97,"name":"Dailymotion","category_code":"news","Lugares":null,"clean_state":"Invalid lat lat and long","founded_year":2005.0},{"index":97,"name":"Dailymotion","category_code":"news","Lugares":null,"clean_state":"Invalid lat lat and long","founded_year":2005.0},{"index":97,"name":"Dailymotion","category_code":"news","Lugares":null,"clean_state":"Invalid lat lat and long","founded_year":2005.0},{"index":97,"name":"Dailymotion","category_code":"news","Lugares":null,"clean_state":"Invalid lat lat and long","founded_year":2005.0},{"index":98,"name":"KickApps","category_code":"enterprise","Lugares":{"type":"Point","coordinates":[-73.9843328,40.7516611]},"clean_state":"success","founded_year":2004.0},{"index":98,"name":"KickApps","category_code":"enterprise","Lugares":{"type":"Point","coordinates":[-118.468707,33.991101]},"clean_state":"success","founded_year":2004.0},{"index":98,"name":"KickApps","category_code":"enterprise","Lugares":{"type":"Point","coordinates":[-122.4016144,37.7891086]},"clean_state":"success","founded_year":2004.0},{"index":98,"name":"KickApps","category_code":"enterprise","Lugares":{"type":"Point","coordinates":[-0.1356235,51.5094731]},"clean_state":"success","founded_year":2004.0},{"index":99,"name":"Pageflakes","category_code":"web","Lugares":{"type":"Point","coordinates":[-122.414689,37.758113]},"clean_state":"success","founded_year":2006.0},{"index":100,"name":"Instructables","category_code":"web","Lugares":{"type":"Point","coordinates":[-122.4058887,37.7791761]},"clean_state":"success","founded_year":2005.0},{"index":101,"name":"Swivel","category_code":"search","Lugares":{"type":"Point","coordinates":[-122.395184,37.789268]},"clean_state":"success","founded_year":2005.0},{"index":102,"name":"Netvibes","category_code":"web","Lugares":{"type":"Point","coordinates":[2.34668,48.870806]},"clean_state":"success","founded_year":2005.0},{"index":102,"name":"Netvibes","category_code":"web","Lugares":null,"clean_state":"Invalid lat lat and long","founded_year":2005.0},{"index":103,"name":"RockYou","category_code":"games_video","Lugares":{"type":"Point","coordinates":[-122.206893,37.484619]},"clean_state":"success","founded_year":2005.0},{"index":104,"name":"BabyCenter","category_code":"web","Lugares":{"type":"Point","coordinates":[-122.397977,37.778076]},"clean_state":"success","founded_year":1997.0},{"index":105,"name":"Flickr","category_code":"web","Lugares":{"type":"Point","coordinates":[-122.025485,37.418531]},"clean_state":"success","founded_year":2004.0},{"index":107,"name":"Bebo","category_code":"web","Lugares":{"type":"Point","coordinates":[-122.401116,37.782103]},"clean_state":"success","founded_year":2005.0},{"index":108,"name":"coRank","category_code":"web","Lugares":{"type":"Point","coordinates":[-122.02421,37.36965]},"clean_state":"success","founded_year":2007.0},{"index":109,"name":"Intel","category_code":"hardware","Lugares":{"type":"Point","coordinates":[-121.96761,37.384949]},"clean_state":"success","founded_year":1968.0},{"index":110,"name":"Slide","category_code":"public_relations","Lugares":{"type":"Point","coordinates":[-122.392144,37.781427]},"clean_state":"success","founded_year":2005.0},{"index":111,"name":"CrowdVine","category_code":"web","Lugares":{"type":"Point","coordinates":[-122.511687,37.90077]},"clean_state":"success","founded_year":2007.0},{"index":112,"name":"WeFi","category_code":"mobile","Lugares":{"type":"Point","coordinates":[-95.712891,37.09024]},"clean_state":"success","founded_year":2006.0},{"index":113,"name":"FeedBurner","category_code":"web","Lugares":{"type":"Point","coordinates":[-87.628912,41.889474]},"clean_state":"success","founded_year":2004.0},{"index":114,"name":"TVtrip","category_code":"web","Lugares":{"type":"Point","coordinates":[2.350987,48.856667]},"clean_state":"success","founded_year":2007.0},{"index":115,"name":"TheFind","category_code":"ecommerce","Lugares":{"type":"Point","coordinates":[-122.073463,37.391502]},"clean_state":"success","founded_year":2006.0},{"index":116,"name":"Dogster","category_code":"web","Lugares":{"type":"Point","coordinates":[-122.400909,37.762681]},"clean_state":"success","founded_year":2004.0},{"index":117,"name":"Zazzle","category_code":"ecommerce","Lugares":{"type":"Point","coordinates":[-122.2013557,37.5108541]},"clean_state":"success","founded_year":1999.0},{"index":118,"name":"CornerWorld","category_code":"public_relations","Lugares":{"type":"Point","coordinates":[-96.771281,32.914662]},"clean_state":"success","founded_year":2002.0},{"index":119,"name":"WatZatSong","category_code":"web","Lugares":{"type":"Point","coordinates":[2.381514,48.866323]},"clean_state":"success","founded_year":2006.0},{"index":120,"name":"PBworks","category_code":"enterprise","Lugares":null,"clean_state":"Invalid lat lat and long","founded_year":2005.0},{"index":121,"name":"Sway","category_code":"advertising","Lugares":{"type":"Point","coordinates":[-89.522805,43.090756]},"clean_state":"success","founded_year":2004.0},{"index":122,"name":"TripHub","category_code":"web","Lugares":{"type":"Point","coordinates":[-122.338793,47.614653]},"clean_state":"success","founded_year":2005.0},{"index":123,"name":"adBrite","category_code":"advertising","Lugares":{"type":"Point","coordinates":[-122.40184,37.779026]},"clean_state":"success","founded_year":2003.0},{"index":124,"name":"Loomia","category_code":"web","Lugares":{"type":"Point","coordinates":[-122.404869,37.796396]},"clean_state":"success","founded_year":2004.0},{"index":125,"name":"Meebo","category_code":"web","Lugares":{"type":"Point","coordinates":[-122.079017,37.393679]},"clean_state":"success","founded_year":2005.0},{"index":125,"name":"Meebo","category_code":"web","Lugares":null,"clean_state":"Invalid lat lat and long","founded_year":2005.0},{"index":125,"name":"Meebo","category_code":"web","Lugares":null,"clean_state":"Invalid lat lat and long","founded_year":2005.0},{"index":125,"name":"Meebo","category_code":"web","Lugares":null,"clean_state":"Invalid lat lat and long","founded_year":2005.0},{"index":125,"name":"Meebo","category_code":"web","Lugares":null,"clean_state":"Invalid lat lat and long","founded_year":2005.0},{"index":126,"name":"Terabitz","category_code":"web","Lugares":{"type":"Point","coordinates":[-122.159928,37.437328]},"clean_state":"success","founded_year":2006.0},{"index":127,"name":"Eventbrite","category_code":"web","Lugares":{"type":"Point","coordinates":[-122.39071,37.779507]},"clean_state":"success","founded_year":2006.0},{"index":128,"name":"iLike","category_code":"games_video","Lugares":{"type":"Point","coordinates":[-122.323408,47.615313]},"clean_state":"success","founded_year":2002.0},{"index":129,"name":"Jamendo","category_code":"other","Lugares":{"type":"Point","coordinates":[6.1329985,49.6026778]},"clean_state":"success","founded_year":2005.0},{"index":131,"name":"Newsvine","category_code":"web","Lugares":{"type":"Point","coordinates":[-122.358484,47.618599]},"clean_state":"success","founded_year":2005.0},{"index":132,"name":"FlickIM","category_code":"mobile","Lugares":{"type":"Point","coordinates":[-122.269259,37.870744]},"clean_state":"success","founded_year":2006.0},{"index":134,"name":"Yahoo!","category_code":"web","Lugares":{"type":"Point","coordinates":[-122.025485,37.418531]},"clean_state":"success","founded_year":1994.0},{"index":135,"name":"Ticketmaster","category_code":"web","Lugares":{"type":"Point","coordinates":[-118.3835957,34.0906602]},"clean_state":"success","founded_year":1976.0},{"index":136,"name":"Box","category_code":"network_hosting","Lugares":{"type":"Point","coordinates":[-122.143701,37.425801]},"clean_state":"success","founded_year":2005.0},{"index":137,"name":"Conduit","category_code":"advertising","Lugares":{"type":"Point","coordinates":[-122.325248,37.561877]},"clean_state":"success","founded_year":2005.0},{"index":138,"name":"Go2Web20","category_code":"web","Lugares":{"type":"Point","coordinates":[34.7595,32.0554]},"clean_state":"success","founded_year":2006.0},{"index":139,"name":"Kaboodle","category_code":"ecommerce","Lugares":{"type":"Point","coordinates":[-122.036301,37.382162]},"clean_state":"success","founded_year":2005.0},{"index":140,"name":"Wink","category_code":"search","Lugares":{"type":"Point","coordinates":[-122.072981,37.40047]},"clean_state":"success","founded_year":2004.0},{"index":141,"name":"TechnologyGuide","category_code":"web","Lugares":{"type":"Point","coordinates":[-84.351532,39.06685]},"clean_state":"success","founded_year":2001.0},{"index":142,"name":"coComment","category_code":"web","Lugares":{"type":"Point","coordinates":[6.139959,46.20381]},"clean_state":"success","founded_year":2006.0},{"index":143,"name":"Hotelicopter","category_code":"web","Lugares":{"type":"Point","coordinates":[-78.48158,38.030823]},"clean_state":"success","founded_year":2006.0},{"index":144,"name":"LinkedIn","category_code":"social","Lugares":{"type":"Point","coordinates":[-122.073635,37.423258]},"clean_state":"success","founded_year":2003.0},{"index":145,"name":"Carbonite","category_code":"network_hosting","Lugares":{"type":"Point","coordinates":[-71.076869,42.350571]},"clean_state":"success","founded_year":2006.0},{"index":146,"name":"GigaOM","category_code":"news","Lugares":{"type":"Point","coordinates":[-122.419204,37.775196]},"clean_state":"success","founded_year":2006.0},{"index":146,"name":"GigaOM","category_code":"news","Lugares":{"type":"Point","coordinates":[-74.0059731,40.7143528]},"clean_state":"success","founded_year":2006.0},{"index":147,"name":"MotionDSP","category_code":"software","Lugares":null,"clean_state":"Invalid lat lat and long","founded_year":2005.0},{"index":148,"name":"Techmeme","category_code":"web","Lugares":{"type":"Point","coordinates":[-122.3985871,37.7618242]},"clean_state":"success","founded_year":2004.0},{"index":149,"name":"RegOnline","category_code":"software","Lugares":{"type":"Point","coordinates":[-105.1110024,39.9195028]},"clean_state":"success","founded_year":1996.0},{"index":150,"name":"Redfin","category_code":"real_estate","Lugares":{"type":"Point","coordinates":[-122.333253,47.603122]},"clean_state":"success","founded_year":2004.0},{"index":151,"name":"Eventful","category_code":"web","Lugares":{"type":"Point","coordinates":[-117.206292,32.872081]},"clean_state":"success","founded_year":2004.0},{"index":151,"name":"Eventful","category_code":"web","Lugares":null,"clean_state":"Invalid lat lat and long","founded_year":2004.0},{"index":152,"name":"Zvents","category_code":"web","Lugares":{"type":"Point","coordinates":[-122.301534,37.553121]},"clean_state":"success","founded_year":2005.0},{"index":153,"name":"Oodle","category_code":"social","Lugares":{"type":"Point","coordinates":[-122.324621,37.563585]},"clean_state":"success","founded_year":2004.0},{"index":154,"name":"Seesmic","category_code":"web","Lugares":{"type":"Point","coordinates":[-122.419204,37.775196]},"clean_state":"success","founded_year":2007.0},{"index":155,"name":"ooma","category_code":"hardware","Lugares":{"type":"Point","coordinates":[-122.116026,37.451958]},"clean_state":"success","founded_year":2004.0},{"index":156,"name":"oDesk","category_code":"web","Lugares":{"type":"Point","coordinates":[-122.178557,37.479952]},"clean_state":"success","founded_year":2005.0},{"index":157,"name":"Simply Hired","category_code":"search","Lugares":{"type":"Point","coordinates":[-122.0780632,37.4219165]},"clean_state":"success","founded_year":2004.0},{"index":158,"name":"Cofoundr","category_code":"network_hosting","Lugares":{"type":"Point","coordinates":[-122.420903,37.796164]},"clean_state":"success","founded_year":2007.0},{"index":159,"name":"Scripps Networks Interactive","category_code":"web","Lugares":{"type":"Point","coordinates":[-95.712891,37.09024]},"clean_state":"success","founded_year":1994.0},{"index":160,"name":"Ujogo","category_code":"web","Lugares":{"type":"Point","coordinates":[-122.392861,37.76785]},"clean_state":"success","founded_year":2007.0},{"index":161,"name":"Recipezaar","category_code":"web","Lugares":{"type":"Point","coordinates":[-122.450942,47.420728]},"clean_state":"success","founded_year":1999.0},{"index":162,"name":"ictv","category_code":"web","Lugares":{"type":"Point","coordinates":[-121.96533,37.255118]},"clean_state":"success","founded_year":1994.0},{"index":163,"name":"Gumiyo","category_code":"web","Lugares":{"type":"Point","coordinates":[-118.601532,34.184598]},"clean_state":"success","founded_year":2006.0},{"index":164,"name":"stylediary","category_code":"web","Lugares":{"type":"Point","coordinates":[-118.350486,34.070436]},"clean_state":"success","founded_year":2004.0},{"index":165,"name":"MyPublicInfo","category_code":"web","Lugares":{"type":"Point","coordinates":[-77.072003,38.897428]},"clean_state":"success","founded_year":2004.0},{"index":166,"name":"GoingOn","category_code":"software","Lugares":{"type":"Point","coordinates":[-122.392142,37.782263]},"clean_state":"success","founded_year":2008.0},{"index":167,"name":"Flixster","category_code":"web","Lugares":{"type":"Point","coordinates":[-122.406676,37.766909]},"clean_state":"success","founded_year":2006.0},{"index":168,"name":"Checkster","category_code":"web","Lugares":{"type":"Point","coordinates":[-122.547445,37.905544]},"clean_state":"success","founded_year":2006.0},{"index":169,"name":"Vast","category_code":"ecommerce","Lugares":{"type":"Point","coordinates":[-122.397759,37.787183]},"clean_state":"success","founded_year":2001.0},{"index":169,"name":"Vast","category_code":"ecommerce","Lugares":null,"clean_state":"Invalid lat lat and long","founded_year":2001.0},{"index":171,"name":"Piczo","category_code":"network_hosting","Lugares":{"type":"Point","coordinates":[-122.398479,37.793703]},"clean_state":"success","founded_year":1990.0},{"index":172,"name":"Cyworld","category_code":"web","Lugares":null,"clean_state":"Invalid lat lat and long","founded_year":1999.0},{"index":174,"name":"Spreadshirt","category_code":"advertising","Lugares":{"type":"Point","coordinates":[-80.004195,40.437985]},"clean_state":"success","founded_year":2002.0},{"index":175,"name":"PhotoBox","category_code":"ecommerce","Lugares":null,"clean_state":"Invalid lat lat and long","founded_year":2000.0},{"index":176,"name":"IceRocket","category_code":"search","Lugares":{"type":"Point","coordinates":[-96.797111,32.781078]},"clean_state":"success","founded_year":2004.0},{"index":177,"name":"barablu","category_code":"mobile","Lugares":null,"clean_state":"Invalid lat lat and long","founded_year":2005.0},{"index":178,"name":"ConnectMeAnywhere","category_code":"web","Lugares":{"type":"Point","coordinates":[-0.205349,51.514935]},"clean_state":"success","founded_year":2006.0},{"index":179,"name":"Socialtext","category_code":"enterprise","Lugares":{"type":"Point","coordinates":[-122.1615,37.442949]},"clean_state":"success","founded_year":2002.0},{"index":180,"name":"Ohloh","category_code":"web","Lugares":null,"clean_state":"Invalid lat lat and long","founded_year":2004.0},{"index":181,"name":"spigit","category_code":"software","Lugares":{"type":"Point","coordinates":[-121.8731805,37.6637279]},"clean_state":"success","founded_year":2006.0},{"index":181,"name":"spigit","category_code":"software","Lugares":{"type":"Point","coordinates":[-77.3592746,38.9590083]},"clean_state":"success","founded_year":2006.0},{"index":181,"name":"spigit","category_code":"software","Lugares":{"type":"Point","coordinates":[-0.1394759,51.5170385]},"clean_state":"success","founded_year":2006.0},{"index":182,"name":"Clipperz","category_code":"web","Lugares":{"type":"Point","coordinates":[11.978686,44.418166]},"clean_state":"success","founded_year":2005.0},{"index":183,"name":"Bazaarvoice","category_code":"software","Lugares":{"type":"Point","coordinates":[-97.717667,30.407545]},"clean_state":"success","founded_year":2005.0},{"index":185,"name":"Nintendo","category_code":"games_video","Lugares":{"type":"Point","coordinates":[138.252924,36.204824]},"clean_state":"success","founded_year":1889.0},{"index":186,"name":"Tagged","category_code":"social","Lugares":{"type":"Point","coordinates":[-122.4186,37.7753]},"clean_state":"success","founded_year":2004.0},{"index":187,"name":"LiveWorld","category_code":"web","Lugares":{"type":"Point","coordinates":[-121.979453,37.321798]},"clean_state":"success","founded_year":1996.0},{"index":187,"name":"LiveWorld","category_code":"web","Lugares":{"type":"Point","coordinates":[-0.126236,51.500152]},"clean_state":"success","founded_year":1996.0},{"index":188,"name":"ScanScout","category_code":"advertising","Lugares":{"type":"Point","coordinates":[-71.051931,42.340889]},"clean_state":"success","founded_year":2005.0},{"index":188,"name":"ScanScout","category_code":"advertising","Lugares":{"type":"Point","coordinates":[-73.993158,40.739833]},"clean_state":"success","founded_year":2005.0},{"index":188,"name":"ScanScout","category_code":"advertising","Lugares":{"type":"Point","coordinates":[-118.459995,34.050887]},"clean_state":"success","founded_year":2005.0},{"index":189,"name":"Cerado","category_code":"web","Lugares":{"type":"Point","coordinates":[-122.415375,37.774321]},"clean_state":"success","founded_year":2002.0},{"index":190,"name":"hi5","category_code":"games_video","Lugares":{"type":"Point","coordinates":[-122.400558,37.788668]},"clean_state":"success","founded_year":2003.0},{"index":191,"name":"Jaxtr","category_code":"mobile","Lugares":{"type":"Point","coordinates":[-122.18676,37.451026]},"clean_state":"success","founded_year":2005.0},{"index":192,"name":"ONEsite","category_code":"other","Lugares":{"type":"Point","coordinates":[-97.5736,35.612679]},"clean_state":"success","founded_year":2005.0},{"index":193,"name":"introNetworks","category_code":"web","Lugares":{"type":"Point","coordinates":[-119.641821,34.42071]},"clean_state":"success","founded_year":2003.0},{"index":194,"name":"37signals","category_code":"public_relations","Lugares":{"type":"Point","coordinates":[-87.6557234,41.8892178]},"clean_state":"success","founded_year":1999.0},{"index":195,"name":"Kwiqq","category_code":"web","Lugares":null,"clean_state":"Invalid lat lat and long","founded_year":2007.0},{"index":198,"name":"Wallhogs","category_code":"public_relations","Lugares":{"type":"Point","coordinates":[-79.462703,40.30305]},"clean_state":"success","founded_year":2006.0},{"index":199,"name":"Respectance","category_code":"web","Lugares":{"type":"Point","coordinates":[-122.321836,37.55909]},"clean_state":"success","founded_year":2006.0},{"index":200,"name":"NetSuite","category_code":"enterprise","Lugares":{"type":"Point","coordinates":[-122.327323,37.536172]},"clean_state":"success","founded_year":1998.0},{"index":201,"name":"Jaman","category_code":"games_video","Lugares":{"type":"Point","coordinates":[-122.327323,37.536172]},"clean_state":"success","founded_year":1992.0},{"index":202,"name":"GoLightly","category_code":"software","Lugares":{"type":"Point","coordinates":[-122.537302,37.898575]},"clean_state":"success","founded_year":2005.0},{"index":204,"name":"Curse","category_code":"games_video","Lugares":{"type":"Point","coordinates":[-122.399972,37.787092]},"clean_state":"success","founded_year":2006.0},{"index":204,"name":"Curse","category_code":"games_video","Lugares":null,"clean_state":"Invalid lat lat and long","founded_year":2006.0},{"index":205,"name":"PeerMe","category_code":"games_video","Lugares":{"type":"Point","coordinates":[-122.090188,37.419819]},"clean_state":"success","founded_year":2004.0},{"index":206,"name":"Indeed","category_code":"web","Lugares":{"type":"Point","coordinates":[-73.558082,41.038155]},"clean_state":"success","founded_year":2004.0},{"index":206,"name":"Indeed","category_code":"web","Lugares":null,"clean_state":"Invalid lat lat and long","founded_year":2004.0},{"index":207,"name":"Kiptronic","category_code":"advertising","Lugares":{"type":"Point","coordinates":[-122.402349,37.792394]},"clean_state":"success","founded_year":2005.0},{"index":209,"name":"Zenfolio","category_code":"network_hosting","Lugares":{"type":"Point","coordinates":[-122.1802812,37.4484914]},"clean_state":"success","founded_year":2005.0},{"index":210,"name":"Grockit","category_code":"social","Lugares":{"type":"Point","coordinates":[-122.419204,37.775196]},"clean_state":"success","founded_year":2006.0},{"index":211,"name":"JumpBox","category_code":"software","Lugares":{"type":"Point","coordinates":[-111.944967,33.429864]},"clean_state":"success","founded_year":2006.0},{"index":212,"name":"Phonezoo","category_code":"web","Lugares":{"type":"Point","coordinates":[-121.991471,37.386376]},"clean_state":"success","founded_year":2006.0},{"index":213,"name":"LongJump","category_code":"enterprise","Lugares":{"type":"Point","coordinates":[-121.992132,37.384651]},"clean_state":"success","founded_year":1999.0},{"index":214,"name":"Relationals","category_code":"web","Lugares":{"type":"Point","coordinates":[-121.992132,37.384651]},"clean_state":"success","founded_year":2007.0},{"index":215,"name":"Vuze","category_code":"games_video","Lugares":{"type":"Point","coordinates":[-122.2262606,37.4858654]},"clean_state":"success","founded_year":2005.0},{"index":216,"name":"Google","category_code":"search","Lugares":{"type":"Point","coordinates":[-122.084143,37.421972]},"clean_state":"success","founded_year":1998.0},{"index":216,"name":"Google","category_code":"search","Lugares":{"type":"Point","coordinates":[-83.748882,42.280988]},"clean_state":"success","founded_year":1998.0},{"index":216,"name":"Google","category_code":"search","Lugares":{"type":"Point","coordinates":[-84.387519,33.781466]},"clean_state":"success","founded_year":1998.0},{"index":216,"name":"Google","category_code":"search","Lugares":{"type":"Point","coordinates":[-97.751382,30.351416]},"clean_state":"success","founded_year":1998.0},{"index":216,"name":"Google","category_code":"search","Lugares":{"type":"Point","coordinates":[-105.260931,40.021416]},"clean_state":"success","founded_year":1998.0},{"index":216,"name":"Google","category_code":"search","Lugares":{"type":"Point","coordinates":[-71.087478,42.36305]},"clean_state":"success","founded_year":1998.0},{"index":216,"name":"Google","category_code":"search","Lugares":{"type":"Point","coordinates":[-87.628912,41.889474]},"clean_state":"success","founded_year":1998.0},{"index":216,"name":"Google","category_code":"search","Lugares":{"type":"Point","coordinates":[-97.018196,32.981465]},"clean_state":"success","founded_year":1998.0},{"index":216,"name":"Google","category_code":"search","Lugares":{"type":"Point","coordinates":[-96.807693,32.809161]},"clean_state":"success","founded_year":1998.0},{"index":216,"name":"Google","category_code":"search","Lugares":{"type":"Point","coordinates":[-104.898419,39.62919]},"clean_state":"success","founded_year":1998.0},{"index":216,"name":"Google","category_code":"search","Lugares":{"type":"Point","coordinates":[-83.215498,42.547807]},"clean_state":"success","founded_year":1998.0},{"index":216,"name":"Google","category_code":"search","Lugares":{"type":"Point","coordinates":[-117.861817,33.658331]},"clean_state":"success","founded_year":1998.0},{"index":216,"name":"Google","category_code":"search","Lugares":null,"clean_state":"Invalid lat lat and long","founded_year":1998.0},{"index":216,"name":"Google","category_code":"search","Lugares":{"type":"Point","coordinates":[-74.004489,40.74222]},"clean_state":"success","founded_year":1998.0},{"index":216,"name":"Google","category_code":"search","Lugares":{"type":"Point","coordinates":[-111.926263,33.411898]},"clean_state":"success","founded_year":1998.0},{"index":216,"name":"Google","category_code":"search","Lugares":{"type":"Point","coordinates":[-79.946269,40.444528]},"clean_state":"success","founded_year":1998.0},{"index":216,"name":"Google","category_code":"search","Lugares":{"type":"Point","coordinates":[-122.389757,37.789803]},"clean_state":"success","founded_year":1998.0},{"index":216,"name":"Google","category_code":"search","Lugares":{"type":"Point","coordinates":[-118.494288,34.019282]},"clean_state":"success","founded_year":1998.0},{"index":216,"name":"Google","category_code":"search","Lugares":{"type":"Point","coordinates":[-122.351397,47.675326]},"clean_state":"success","founded_year":1998.0},{"index":216,"name":"Google","category_code":"search","Lugares":{"type":"Point","coordinates":[-122.350592,47.649701]},"clean_state":"success","founded_year":1998.0},{"index":216,"name":"Google","category_code":"search","Lugares":{"type":"Point","coordinates":[-77.027101,38.901113]},"clean_state":"success","founded_year":1998.0},{"index":216,"name":"Google","category_code":"search","Lugares":{"type":"Point","coordinates":[145.073608,-37.879234]},"clean_state":"success","founded_year":1998.0},{"index":216,"name":"Google","category_code":"search","Lugares":{"type":"Point","coordinates":[138.612396,-34.822723]},"clean_state":"success","founded_year":1998.0},{"index":216,"name":"Google","category_code":"search","Lugares":null,"clean_state":"Invalid lat lat and long","founded_year":1998.0},{"index":216,"name":"Google","category_code":"search","Lugares":null,"clean_state":"Invalid lat lat and long","founded_year":1998.0},{"index":216,"name":"Google","category_code":"search","Lugares":null,"clean_state":"Invalid lat lat and long","founded_year":1998.0},{"index":216,"name":"Google","category_code":"search","Lugares":null,"clean_state":"Invalid lat lat and long","founded_year":1998.0},{"index":216,"name":"Google","category_code":"search","Lugares":null,"clean_state":"Invalid lat lat and long","founded_year":1998.0},{"index":216,"name":"Google","category_code":"search","Lugares":null,"clean_state":"Invalid lat lat and long","founded_year":1998.0},{"index":216,"name":"Google","category_code":"search","Lugares":{"type":"Point","coordinates":[77.122261,28.86999]},"clean_state":"success","founded_year":1998.0},{"index":216,"name":"Google","category_code":"search","Lugares":null,"clean_state":"Invalid lat lat and long","founded_year":1998.0},{"index":216,"name":"Google","category_code":"search","Lugares":null,"clean_state":"Invalid lat lat and long","founded_year":1998.0},{"index":216,"name":"Google","category_code":"search","Lugares":null,"clean_state":"Invalid lat lat and long","founded_year":1998.0},{"index":216,"name":"Google","category_code":"search","Lugares":null,"clean_state":"Invalid lat lat and long","founded_year":1998.0},{"index":216,"name":"Google","category_code":"search","Lugares":null,"clean_state":"Invalid lat lat and long","founded_year":1998.0},{"index":216,"name":"Google","category_code":"search","Lugares":null,"clean_state":"Invalid lat lat and long","founded_year":1998.0},{"index":216,"name":"Google","category_code":"search","Lugares":null,"clean_state":"Invalid lat lat and long","founded_year":1998.0},{"index":216,"name":"Google","category_code":"search","Lugares":{"type":"Point","coordinates":[10.187799,56.171882]},"clean_state":"success","founded_year":1998.0},{"index":216,"name":"Google","category_code":"search","Lugares":null,"clean_state":"Invalid lat lat and long","founded_year":1998.0},{"index":216,"name":"Google","category_code":"search","Lugares":null,"clean_state":"Invalid lat lat and long","founded_year":1998.0},{"index":216,"name":"Google","category_code":"search","Lugares":{"type":"Point","coordinates":[2.332749,48.869606]},"clean_state":"success","founded_year":1998.0},{"index":216,"name":"Google","category_code":"search","Lugares":{"type":"Point","coordinates":[9.985266,53.554052]},"clean_state":"success","founded_year":1998.0},{"index":216,"name":"Google","category_code":"search","Lugares":{"type":"Point","coordinates":[-6.234424,53.339914]},"clean_state":"success","founded_year":1998.0},{"index":216,"name":"Google","category_code":"search","Lugares":{"type":"Point","coordinates":[9.195978,45.46381]},"clean_state":"success","founded_year":1998.0},{"index":216,"name":"Google","category_code":"search","Lugares":{"type":"Point","coordinates":[4.871464,52.337495]},"clean_state":"success","founded_year":1998.0},{"index":216,"name":"Google","category_code":"search","Lugares":{"type":"Point","coordinates":[10.741047,59.915848]},"clean_state":"success","founded_year":1998.0},{"index":216,"name":"Google","category_code":"search","Lugares":{"type":"Point","coordinates":[10.412428,63.435324]},"clean_state":"success","founded_year":1998.0},{"index":216,"name":"Google","category_code":"search","Lugares":{"type":"Point","coordinates":[19.929806,50.063281]},"clean_state":"success","founded_year":1998.0},{"index":216,"name":"Google","category_code":"search","Lugares":{"type":"Point","coordinates":[17.041942,51.116574]},"clean_state":"success","founded_year":1998.0},{"index":216,"name":"Google","category_code":"search","Lugares":null,"clean_state":"Invalid lat lat and long","founded_year":1998.0},{"index":216,"name":"Google","category_code":"search","Lugares":null,"clean_state":"Invalid lat lat and long","founded_year":1998.0},{"index":216,"name":"Google","category_code":"search","Lugares":null,"clean_state":"Invalid lat lat and long","founded_year":1998.0},{"index":216,"name":"Google","category_code":"search","Lugares":{"type":"Point","coordinates":[22.126255,65.617491]},"clean_state":"success","founded_year":1998.0},{"index":216,"name":"Google","category_code":"search","Lugares":{"type":"Point","coordinates":[18.060162,59.332344]},"clean_state":"success","founded_year":1998.0},{"index":216,"name":"Google","category_code":"search","Lugares":{"type":"Point","coordinates":[8.524864,47.36554]},"clean_state":"success","founded_year":1998.0},{"index":216,"name":"Google","category_code":"search","Lugares":null,"clean_state":"Invalid lat lat and long","founded_year":1998.0},{"index":216,"name":"Google","category_code":"search","Lugares":{"type":"Point","coordinates":[-2.250166,53.473606]},"clean_state":"success","founded_year":1998.0},{"index":216,"name":"Google","category_code":"search","Lugares":{"type":"Point","coordinates":[-73.567044,45.498588]},"clean_state":"success","founded_year":1998.0},{"index":216,"name":"Google","category_code":"search","Lugares":null,"clean_state":"Invalid lat lat and long","founded_year":1998.0},{"index":216,"name":"Google","category_code":"search","Lugares":{"type":"Point","coordinates":[-80.546381,43.474704]},"clean_state":"success","founded_year":1998.0},{"index":216,"name":"Google","category_code":"search","Lugares":null,"clean_state":"Invalid lat lat and long","founded_year":1998.0},{"index":216,"name":"Google","category_code":"search","Lugares":{"type":"Point","coordinates":[-46.681494,-23.590463]},"clean_state":"success","founded_year":1998.0},{"index":216,"name":"Google","category_code":"search","Lugares":{"type":"Point","coordinates":[-99.030156,19.507519]},"clean_state":"success","founded_year":1998.0},{"index":216,"name":"Google","category_code":"search","Lugares":null,"clean_state":"Invalid lat lat and long","founded_year":1998.0},{"index":216,"name":"Google","category_code":"search","Lugares":null,"clean_state":"Invalid lat lat and long","founded_year":1998.0},{"index":216,"name":"Google","category_code":"search","Lugares":null,"clean_state":"Invalid lat lat and long","founded_year":1998.0},{"index":216,"name":"Google","category_code":"search","Lugares":null,"clean_state":"Invalid lat lat and long","founded_year":1998.0},{"index":218,"name":"Nononina","category_code":"web","Lugares":{"type":"Point","coordinates":[-119.306607,37.269175]},"clean_state":"success","founded_year":2007.0},{"index":220,"name":"Wishpot","category_code":"ecommerce","Lugares":{"type":"Point","coordinates":[-122.347533,47.620716]},"clean_state":"success","founded_year":2006.0},{"index":221,"name":"PodTech","category_code":"games_video","Lugares":{"type":"Point","coordinates":[-122.154176,37.408256]},"clean_state":"success","founded_year":2005.0},{"index":222,"name":"FeVote","category_code":"web","Lugares":{"type":"Point","coordinates":[-122.417928,37.779392]},"clean_state":"success","founded_year":2007.0},{"index":223,"name":"NowPublic","category_code":"web","Lugares":{"type":"Point","coordinates":[-123.103986,49.283376]},"clean_state":"success","founded_year":2005.0},{"index":224,"name":"Crackle","category_code":"games_video","Lugares":{"type":"Point","coordinates":[-118.401579,34.017506]},"clean_state":"success","founded_year":2004.0},{"index":225,"name":"Clipmarks","category_code":"photo_video","Lugares":{"type":"Point","coordinates":[-73.985506,40.757929]},"clean_state":"success","founded_year":2003.0},{"index":226,"name":"DOmedia","category_code":"advertising","Lugares":{"type":"Point","coordinates":[-83.005038,39.967704]},"clean_state":"success","founded_year":2007.0},{"index":228,"name":"eBuddy","category_code":"messaging","Lugares":{"type":"Point","coordinates":[4.8919457,52.3640933]},"clean_state":"success","founded_year":2003.0},{"index":228,"name":"eBuddy","category_code":"messaging","Lugares":{"type":"Point","coordinates":[-122.410943,37.787683]},"clean_state":"success","founded_year":2003.0},{"index":228,"name":"eBuddy","category_code":"messaging","Lugares":{"type":"Point","coordinates":[-0.126236,51.500152]},"clean_state":"success","founded_year":2003.0},{"index":229,"name":"Truphone","category_code":"mobile","Lugares":null,"clean_state":"Invalid lat lat and long","founded_year":2006.0},{"index":229,"name":"Truphone","category_code":"mobile","Lugares":null,"clean_state":"Invalid lat lat and long","founded_year":2006.0},{"index":229,"name":"Truphone","category_code":"mobile","Lugares":null,"clean_state":"Invalid lat lat and long","founded_year":2006.0},{"index":229,"name":"Truphone","category_code":"mobile","Lugares":null,"clean_state":"Invalid lat lat and long","founded_year":2006.0},{"index":229,"name":"Truphone","category_code":"mobile","Lugares":null,"clean_state":"Invalid lat lat and long","founded_year":2006.0},{"index":229,"name":"Truphone","category_code":"mobile","Lugares":null,"clean_state":"Invalid lat lat and long","founded_year":2006.0},{"index":230,"name":"Boonex","category_code":"software","Lugares":{"type":"Point","coordinates":[150.981801,-33.722577]},"clean_state":"success","founded_year":2000.0},{"index":231,"name":"PayScale","category_code":"software","Lugares":{"type":"Point","coordinates":[-122.3276962,47.5999337]},"clean_state":"success","founded_year":1999.0},{"index":232,"name":"Forbes","category_code":"web","Lugares":{"type":"Point","coordinates":[-73.993302,40.736416]},"clean_state":"success","founded_year":2007.0},{"index":233,"name":"Lotame","category_code":"advertising","Lugares":{"type":"Point","coordinates":[-76.77514,39.205649]},"clean_state":"success","founded_year":2006.0},{"index":233,"name":"Lotame","category_code":"advertising","Lugares":{"type":"Point","coordinates":[-73.995487,40.753631]},"clean_state":"success","founded_year":2006.0},{"index":233,"name":"Lotame","category_code":"advertising","Lugares":{"type":"Point","coordinates":[-71.056604,42.359146]},"clean_state":"success","founded_year":2006.0},{"index":233,"name":"Lotame","category_code":"advertising","Lugares":null,"clean_state":"Invalid lat lat and long","founded_year":2006.0},{"index":233,"name":"Lotame","category_code":"advertising","Lugares":null,"clean_state":"Invalid lat lat and long","founded_year":2006.0},{"index":233,"name":"Lotame","category_code":"advertising","Lugares":null,"clean_state":"Invalid lat lat and long","founded_year":2006.0},{"index":234,"name":"Rebtel","category_code":"mobile","Lugares":{"type":"Point","coordinates":[18.1582777,59.3167843]},"clean_state":"success","founded_year":2006.0},{"index":235,"name":"IntenseDebate","category_code":"web","Lugares":{"type":"Point","coordinates":[-105.276843,40.010492]},"clean_state":"success","founded_year":2006.0},{"index":236,"name":"Wikia","category_code":"web","Lugares":null,"clean_state":"Invalid lat lat and long","founded_year":2006.0},{"index":237,"name":"Sony","category_code":"hardware","Lugares":{"type":"Point","coordinates":[-95.712891,37.09024]},"clean_state":"success","founded_year":1946.0},{"index":238,"name":"Reddit","category_code":"web","Lugares":{"type":"Point","coordinates":[-122.395257,37.780883]},"clean_state":"success","founded_year":2005.0},{"index":239,"name":"Buxfer","category_code":"web","Lugares":{"type":"Point","coordinates":[-122.073003,37.400465]},"clean_state":"success","founded_year":2007.0},{"index":240,"name":"BuddyTV","category_code":"games_video","Lugares":{"type":"Point","coordinates":[-122.356756,47.61968]},"clean_state":"success","founded_year":2005.0},{"index":241,"name":"boo-box","category_code":"advertising","Lugares":{"type":"Point","coordinates":[-46.679287,-23.558584]},"clean_state":"success","founded_year":2007.0},{"index":243,"name":"Retrevo","category_code":"web","Lugares":{"type":"Point","coordinates":[-122.034021,37.368594]},"clean_state":"success","founded_year":2006.0},{"index":244,"name":"Tangler","category_code":"web","Lugares":{"type":"Point","coordinates":[-122.084171,37.386665]},"clean_state":"success","founded_year":2006.0},{"index":245,"name":"TextPayMe","category_code":"web","Lugares":{"type":"Point","coordinates":[-122.115633,47.672229]},"clean_state":"success","founded_year":2005.0},{"index":247,"name":"Nimbuzz","category_code":"mobile","Lugares":{"type":"Point","coordinates":[4.5464658,51.9122575]},"clean_state":"success","founded_year":2006.0},{"index":247,"name":"Nimbuzz","category_code":"mobile","Lugares":null,"clean_state":"Invalid lat lat and long","founded_year":2006.0},{"index":248,"name":"BillMonk","category_code":"web","Lugares":{"type":"Point","coordinates":[-122.347533,47.620716]},"clean_state":"success","founded_year":2005.0},{"index":249,"name":"Hightail","category_code":"network_hosting","Lugares":{"type":"Point","coordinates":[-121.935688,37.288974]},"clean_state":"success","founded_year":2004.0},{"index":250,"name":"obopay","category_code":"mobile","Lugares":{"type":"Point","coordinates":[-122.258037,37.524729]},"clean_state":"success","founded_year":2005.0},{"index":251,"name":"Adobe Systems","category_code":"software","Lugares":{"type":"Point","coordinates":[-121.877636,37.320052]},"clean_state":"success","founded_year":1982.0},{"index":253,"name":"MeeMix","category_code":"web","Lugares":{"type":"Point","coordinates":[34.7595,32.0554]},"clean_state":"success","founded_year":2006.0},{"index":254,"name":"Alstrasoft","category_code":"software","Lugares":null,"clean_state":"Invalid lat lat and long","founded_year":1800.0},{"index":255,"name":"Brightcove","category_code":"enterprise","Lugares":{"type":"Point","coordinates":[-71.086596,42.362993]},"clean_state":"success","founded_year":2004.0},{"index":255,"name":"Brightcove","category_code":"enterprise","Lugares":null,"clean_state":"Invalid lat lat and long","founded_year":2004.0},{"index":255,"name":"Brightcove","category_code":"enterprise","Lugares":null,"clean_state":"Invalid lat lat and long","founded_year":2004.0},{"index":255,"name":"Brightcove","category_code":"enterprise","Lugares":null,"clean_state":"Invalid lat lat and long","founded_year":2004.0},{"index":255,"name":"Brightcove","category_code":"enterprise","Lugares":null,"clean_state":"Invalid lat lat and long","founded_year":2004.0},{"index":255,"name":"Brightcove","category_code":"enterprise","Lugares":null,"clean_state":"Invalid lat lat and long","founded_year":2004.0},{"index":255,"name":"Brightcove","category_code":"enterprise","Lugares":null,"clean_state":"Invalid lat lat and long","founded_year":2004.0},{"index":256,"name":"Vudu","category_code":"hardware","Lugares":null,"clean_state":"Invalid lat lat and long","founded_year":2004.0},{"index":257,"name":"WebbAlert","category_code":"games_video","Lugares":{"type":"Point","coordinates":[-118.243425,34.052187]},"clean_state":"success","founded_year":2007.0},{"index":258,"name":"Rocketboom","category_code":"news","Lugares":{"type":"Point","coordinates":[-73.97785,40.797364]},"clean_state":"success","founded_year":2007.0},{"index":259,"name":"Qualcomm","category_code":"semiconductor","Lugares":{"type":"Point","coordinates":[-117.195414,32.89746]},"clean_state":"success","founded_year":1985.0},{"index":260,"name":"WallStrip","category_code":"games_video","Lugares":{"type":"Point","coordinates":[-95.712891,37.09024]},"clean_state":"success","founded_year":2006.0},{"index":261,"name":"PermissionTV","category_code":"games_video","Lugares":{"type":"Point","coordinates":[-71.258466,42.417268]},"clean_state":"success","founded_year":2005.0},{"index":262,"name":"TalkPlus","category_code":"web","Lugares":{"type":"Point","coordinates":[-122.300246,37.553743]},"clean_state":"success","founded_year":2004.0},{"index":263,"name":"Citysearch","category_code":"web","Lugares":{"type":"Point","coordinates":[-118.38428,34.090932]},"clean_state":"success","founded_year":1995.0},{"index":264,"name":"Snapfish","category_code":"network_hosting","Lugares":{"type":"Point","coordinates":[-122.396689,37.78554]},"clean_state":"success","founded_year":1999.0},{"index":265,"name":"The Walt Disney Company","category_code":"games_video","Lugares":{"type":"Point","coordinates":[-118.324987,34.156802]},"clean_state":"success","founded_year":1923.0},{"index":266,"name":"Kaneva","category_code":"web","Lugares":{"type":"Point","coordinates":[-84.350663,33.916374]},"clean_state":"success","founded_year":2004.0},{"index":267,"name":"Amazon","category_code":"ecommerce","Lugares":{"type":"Point","coordinates":[-122.317295,47.5923]},"clean_state":"success","founded_year":1994.0},{"index":268,"name":"PayPal","category_code":"finance","Lugares":{"type":"Point","coordinates":[-121.927696,37.294465]},"clean_state":"success","founded_year":1998.0},{"index":269,"name":"IAC","category_code":"news","Lugares":{"type":"Point","coordinates":[-74.007646,40.745172]},"clean_state":"success","founded_year":1995.0},{"index":270,"name":"IMVU","category_code":"web","Lugares":{"type":"Point","coordinates":[-122.0727749,37.3927975]},"clean_state":"success","founded_year":2004.0},{"index":272,"name":"madKast","category_code":"web","Lugares":{"type":"Point","coordinates":[-105.276843,40.010492]},"clean_state":"success","founded_year":2007.0},{"index":273,"name":"Userplane","category_code":"enterprise","Lugares":{"type":"Point","coordinates":[-118.495566,34.01676]},"clean_state":"success","founded_year":2001.0},{"index":274,"name":"Aniboom","category_code":"games_video","Lugares":{"type":"Point","coordinates":[34.851612,31.046051]},"clean_state":"success","founded_year":2006.0},{"index":275,"name":"Scrybe","category_code":"enterprise","Lugares":{"type":"Point","coordinates":[-74.761403,40.270666]},"clean_state":"success","founded_year":2007.0},{"index":277,"name":"Zwinky","category_code":"web","Lugares":null,"clean_state":"Invalid lat lat and long","founded_year":2006.0},{"index":278,"name":"Webkinz","category_code":"web","Lugares":{"type":"Point","coordinates":[-79.549577,43.76969]},"clean_state":"success","founded_year":2005.0},{"index":279,"name":"Mokitown","category_code":"web","Lugares":{"type":"Point","coordinates":[-95.712891,37.09024]},"clean_state":"success","founded_year":2011.0},{"index":280,"name":"Outdoorzy","category_code":"network_hosting","Lugares":{"type":"Point","coordinates":[-86.463026,37.018244]},"clean_state":"success","founded_year":2006.0},{"index":281,"name":"ActiveWorlds","category_code":"games_video","Lugares":{"type":"Point","coordinates":[-70.8873327,42.7973978]},"clean_state":"success","founded_year":1995.0},{"index":281,"name":"ActiveWorlds","category_code":"games_video","Lugares":null,"clean_state":"Invalid lat lat and long","founded_year":1995.0},{"index":282,"name":"Nirvanix","category_code":"enterprise","Lugares":{"type":"Point","coordinates":[-117.210595,32.877656]},"clean_state":"success","founded_year":2007.0},{"index":284,"name":"Dubit","category_code":"web","Lugares":null,"clean_state":"Invalid lat lat and long","founded_year":2003.0},{"index":285,"name":"Neopets","category_code":"web","Lugares":{"type":"Point","coordinates":[-95.712891,37.09024]},"clean_state":"success","founded_year":1999.0},{"index":286,"name":"Sulake","category_code":"web","Lugares":{"type":"Point","coordinates":[24.945937,60.165166]},"clean_state":"success","founded_year":2000.0},{"index":287,"name":"Millsberry","category_code":"web","Lugares":{"type":"Point","coordinates":[-95.712891,37.09024]},"clean_state":"success","founded_year":2004.0},{"index":289,"name":"KnockaTV","category_code":"games_video","Lugares":{"type":"Point","coordinates":[34.851612,31.046051]},"clean_state":"success","founded_year":2007.0},{"index":291,"name":"GreatCall","category_code":"mobile","Lugares":{"type":"Point","coordinates":[-117.265191,32.964294]},"clean_state":"success","founded_year":2005.0},{"index":292,"name":"INgage Networks","category_code":"software","Lugares":{"type":"Point","coordinates":[-81.788104,26.246414]},"clean_state":"success","founded_year":1999.0},{"index":292,"name":"INgage Networks","category_code":"software","Lugares":null,"clean_state":"Invalid lat lat and long","founded_year":1999.0},{"index":293,"name":"Pickle","category_code":"web","Lugares":{"type":"Point","coordinates":[-77.081732,38.892371]},"clean_state":"success","founded_year":2006.0},{"index":294,"name":"Echo","category_code":"enterprise","Lugares":{"type":"Point","coordinates":[-122.1879633,38.0729365]},"clean_state":"success","founded_year":2007.0},{"index":296,"name":"HireAHelper","category_code":"web","Lugares":null,"clean_state":"Invalid lat lat and long","founded_year":2006.0},{"index":297,"name":"SelectMinds","category_code":"network_hosting","Lugares":{"type":"Point","coordinates":[-73.990004,40.740251]},"clean_state":"success","founded_year":2000.0},{"index":298,"name":"Revver","category_code":"games_video","Lugares":{"type":"Point","coordinates":[-118.243425,34.052187]},"clean_state":"success","founded_year":2004.0},{"index":299,"name":"MindTouch","category_code":"enterprise","Lugares":{"type":"Point","coordinates":[-117.167831,32.720656]},"clean_state":"success","founded_year":2004.0},{"index":302,"name":"Metacafe","category_code":"games_video","Lugares":{"type":"Point","coordinates":[-122.159928,37.437328]},"clean_state":"success","founded_year":2003.0},{"index":303,"name":"Sportingo","category_code":"web","Lugares":{"type":"Point","coordinates":[-96.76492,17.08881]},"clean_state":"success","founded_year":2006.0},{"index":304,"name":"Flock","category_code":"web","Lugares":{"type":"Point","coordinates":[-122.228843,37.491356]},"clean_state":"success","founded_year":2005.0},{"index":305,"name":"Viagogo","category_code":"ecommerce","Lugares":{"type":"Point","coordinates":[-0.126236,51.500152]},"clean_state":"success","founded_year":2005.0},{"index":306,"name":"Kontera","category_code":"advertising","Lugares":{"type":"Point","coordinates":[-122.411157,37.767575]},"clean_state":"success","founded_year":2003.0},{"index":307,"name":"ChaCha","category_code":"advertising","Lugares":{"type":"Point","coordinates":[-86.130347,39.998641]},"clean_state":"success","founded_year":2005.0},{"index":307,"name":"ChaCha","category_code":"advertising","Lugares":null,"clean_state":"Invalid lat lat and long","founded_year":2005.0},{"index":308,"name":"Splashup","category_code":"web","Lugares":{"type":"Point","coordinates":[-95.712891,37.09024]},"clean_state":"success","founded_year":2007.0},{"index":309,"name":"Curverider","category_code":"network_hosting","Lugares":{"type":"Point","coordinates":[-1.197534,51.785428]},"clean_state":"success","founded_year":2005.0},{"index":311,"name":"TimeBridge","category_code":"web","Lugares":null,"clean_state":"Invalid lat lat and long","founded_year":2005.0},{"index":312,"name":"AOL","category_code":"web","Lugares":{"type":"Point","coordinates":[-73.9919311,40.7311317]},"clean_state":"success","founded_year":1985.0},{"index":314,"name":"SomethingSimpler","category_code":"search","Lugares":{"type":"Point","coordinates":[-123.138565,49.263588]},"clean_state":"success","founded_year":2007.0},{"index":317,"name":"Dropbox","category_code":"software","Lugares":{"type":"Point","coordinates":[-122.4084994,37.7909427]},"clean_state":"success","founded_year":2007.0},{"index":317,"name":"Dropbox","category_code":"software","Lugares":null,"clean_state":"Invalid lat lat and long","founded_year":2007.0},{"index":320,"name":"Akamai Technologies","category_code":"enterprise","Lugares":{"type":"Point","coordinates":[-71.08907,42.364059]},"clean_state":"success","founded_year":1998.0},{"index":322,"name":"Sampa","category_code":"web","Lugares":{"type":"Point","coordinates":[-122.135521,47.682233]},"clean_state":"success","founded_year":2005.0},{"index":323,"name":"Jimdo","category_code":"web","Lugares":null,"clean_state":"Invalid lat lat and long","founded_year":2007.0},{"index":323,"name":"Jimdo","category_code":"web","Lugares":null,"clean_state":"Invalid lat lat and long","founded_year":2007.0},{"index":323,"name":"Jimdo","category_code":"web","Lugares":null,"clean_state":"Invalid lat lat and long","founded_year":2007.0},{"index":323,"name":"Jimdo","category_code":"web","Lugares":null,"clean_state":"Invalid lat lat and long","founded_year":2007.0},{"index":324,"name":"TokBox","category_code":"messaging","Lugares":{"type":"Point","coordinates":[-122.39071,37.779507]},"clean_state":"success","founded_year":2007.0},{"index":324,"name":"TokBox","category_code":"messaging","Lugares":null,"clean_state":"Invalid lat lat and long","founded_year":2007.0},{"index":324,"name":"TokBox","category_code":"messaging","Lugares":null,"clean_state":"Invalid lat lat and long","founded_year":2007.0},{"index":324,"name":"TokBox","category_code":"messaging","Lugares":null,"clean_state":"Invalid lat lat and long","founded_year":2007.0},{"index":325,"name":"MobiTV","category_code":"other","Lugares":null,"clean_state":"Invalid lat lat and long","founded_year":2003.0},{"index":327,"name":"Weebly","category_code":"web","Lugares":{"type":"Point","coordinates":[-122.400729,37.795555]},"clean_state":"success","founded_year":2006.0},{"index":328,"name":"Kongregate","category_code":"games_video","Lugares":{"type":"Point","coordinates":[-122.401245,37.786942]},"clean_state":"success","founded_year":2006.0},{"index":329,"name":"DanceJam","category_code":"games_video","Lugares":{"type":"Point","coordinates":[-122.407959,37.781557]},"clean_state":"success","founded_year":2007.0},{"index":330,"name":"Six Apart","category_code":"enterprise","Lugares":{"type":"Point","coordinates":[139.7326754,35.6725213]},"clean_state":"success","founded_year":2001.0},{"index":331,"name":"BitTorrent","category_code":"web","Lugares":{"type":"Point","coordinates":[-122.394668,37.790998]},"clean_state":"success","founded_year":2004.0},{"index":332,"name":"Inneractive","category_code":"advertising","Lugares":{"type":"Point","coordinates":[-122.3229235,37.5646055]},"clean_state":"success","founded_year":2007.0},{"index":333,"name":"EventVue","category_code":"public_relations","Lugares":{"type":"Point","coordinates":[-105.276843,40.010492]},"clean_state":"success","founded_year":2007.0},{"index":334,"name":"Socialthing","category_code":"network_hosting","Lugares":{"type":"Point","coordinates":[-105.2762236,40.0186731]},"clean_state":"success","founded_year":2007.0},{"index":335,"name":"Yola","category_code":"web","Lugares":{"type":"Point","coordinates":[-122.3954751,37.7911148]},"clean_state":"success","founded_year":2007.0},{"index":335,"name":"Yola","category_code":"web","Lugares":null,"clean_state":"Invalid lat lat and long","founded_year":2007.0},{"index":336,"name":"Bountii","category_code":"ecommerce","Lugares":{"type":"Point","coordinates":[-122.159928,37.437328]},"clean_state":"success","founded_year":2007.0},{"index":337,"name":"SlapVid","category_code":"games_video","Lugares":{"type":"Point","coordinates":[-79.948563,40.445009]},"clean_state":"success","founded_year":2007.0},{"index":338,"name":"Eventbee","category_code":"web","Lugares":{"type":"Point","coordinates":[-122.007172,37.383779]},"clean_state":"success","founded_year":2003.0},{"index":339,"name":"Filtrbox","category_code":"web","Lugares":{"type":"Point","coordinates":[-105.276843,40.010492]},"clean_state":"success","founded_year":2007.0},{"index":341,"name":"Brightkite","category_code":"social","Lugares":{"type":"Point","coordinates":[-104.982256,39.762314]},"clean_state":"success","founded_year":2007.0},{"index":342,"name":"Cloudant","category_code":"enterprise","Lugares":{"type":"Point","coordinates":[-71.05781,42.35892]},"clean_state":"success","founded_year":2008.0},{"index":343,"name":"GoFish","category_code":"games_video","Lugares":{"type":"Point","coordinates":[-95.712891,37.09024]},"clean_state":"success","founded_year":2003.0},{"index":344,"name":"PartnerUp","category_code":"web","Lugares":null,"clean_state":"Invalid lat lat and long","founded_year":2005.0},{"index":345,"name":"Guba","category_code":"web","Lugares":{"type":"Point","coordinates":[-95.712891,37.09024]},"clean_state":"success","founded_year":1998.0},{"index":346,"name":"Digitalsmiths","category_code":"software","Lugares":null,"clean_state":"Invalid lat lat and long","founded_year":2006.0},{"index":347,"name":"Kiva","category_code":"finance","Lugares":{"type":"Point","coordinates":[-122.4147,37.762125]},"clean_state":"success","founded_year":2005.0},{"index":349,"name":"Fathom Online","category_code":"advertising","Lugares":{"type":"Point","coordinates":[-122.419204,37.775196]},"clean_state":"success","founded_year":2002.0},{"index":352,"name":"SuicideGirls","category_code":"web","Lugares":{"type":"Point","coordinates":[-118.348198,34.062262]},"clean_state":"success","founded_year":2001.0},{"index":353,"name":"KIT digital","category_code":"enterprise","Lugares":{"type":"Point","coordinates":[-73.971655,40.751816]},"clean_state":"success","founded_year":2008.0},{"index":353,"name":"KIT digital","category_code":"enterprise","Lugares":null,"clean_state":"Invalid lat lat and long","founded_year":2008.0},{"index":353,"name":"KIT digital","category_code":"enterprise","Lugares":null,"clean_state":"Invalid lat lat and long","founded_year":2008.0},{"index":353,"name":"KIT digital","category_code":"enterprise","Lugares":null,"clean_state":"Invalid lat lat and long","founded_year":2008.0},{"index":353,"name":"KIT digital","category_code":"enterprise","Lugares":{"type":"Point","coordinates":[18.0580765,59.3369746]},"clean_state":"success","founded_year":2008.0},{"index":353,"name":"KIT digital","category_code":"enterprise","Lugares":null,"clean_state":"Invalid lat lat and long","founded_year":2008.0},{"index":353,"name":"KIT digital","category_code":"enterprise","Lugares":null,"clean_state":"Invalid lat lat and long","founded_year":2008.0},{"index":353,"name":"KIT digital","category_code":"enterprise","Lugares":null,"clean_state":"Invalid lat lat and long","founded_year":2008.0},{"index":353,"name":"KIT digital","category_code":"enterprise","Lugares":{"type":"Point","coordinates":[-79.5983626,43.6587599]},"clean_state":"success","founded_year":2008.0},{"index":353,"name":"KIT digital","category_code":"enterprise","Lugares":null,"clean_state":"Invalid lat lat and long","founded_year":2008.0},{"index":354,"name":"Zivity","category_code":"network_hosting","Lugares":{"type":"Point","coordinates":[-122.397593,37.789488]},"clean_state":"success","founded_year":2007.0},{"index":355,"name":"Zopa","category_code":"finance","Lugares":{"type":"Point","coordinates":[-0.139947,51.517904]},"clean_state":"success","founded_year":2005.0},{"index":356,"name":"BlueLithium","category_code":"advertising","Lugares":{"type":"Point","coordinates":[-121.948399,37.32052]},"clean_state":"success","founded_year":2004.0},{"index":357,"name":"eXpresso","category_code":"public_relations","Lugares":{"type":"Point","coordinates":[-122.121932,37.451637]},"clean_state":"success","founded_year":1999.0},{"index":358,"name":"Goowy","category_code":"web","Lugares":{"type":"Point","coordinates":[-117.163353,32.71537]},"clean_state":"success","founded_year":2004.0},{"index":359,"name":"InviteShare","category_code":"public_relations","Lugares":{"type":"Point","coordinates":[-122.205016,37.450128]},"clean_state":"success","founded_year":2007.0},{"index":360,"name":"ContextWeb","category_code":"analytics","Lugares":{"type":"Point","coordinates":[-74.010808,40.71014]},"clean_state":"success","founded_year":2000.0},{"index":362,"name":"Techstars","category_code":"finance","Lugares":{"type":"Point","coordinates":[-105.276843,40.010492]},"clean_state":"success","founded_year":2006.0},{"index":363,"name":"A9","category_code":"web","Lugares":{"type":"Point","coordinates":[-122.164511,37.444554]},"clean_state":"success","founded_year":2003.0},{"index":364,"name":"Doostang","category_code":"web","Lugares":{"type":"Point","coordinates":[-122.145783,37.427235]},"clean_state":"success","founded_year":2005.0},{"index":366,"name":"ZoomInfo","category_code":"search","Lugares":{"type":"Point","coordinates":[-71.207055,42.38532]},"clean_state":"success","founded_year":2000.0},{"index":367,"name":"Zango","category_code":"games_video","Lugares":{"type":"Point","coordinates":[-122.155668,47.579208]},"clean_state":"success","founded_year":1999.0},{"index":368,"name":"Hewlett-Packard","category_code":"web","Lugares":{"type":"Point","coordinates":[-122.159928,37.437328]},"clean_state":"success","founded_year":1939.0},{"index":368,"name":"Hewlett-Packard","category_code":"web","Lugares":null,"clean_state":"Invalid lat lat and long","founded_year":1939.0},{"index":370,"name":"Zappos","category_code":"web","Lugares":{"type":"Point","coordinates":[-115.064859,36.032976]},"clean_state":"success","founded_year":1999.0},{"index":370,"name":"Zappos","category_code":"web","Lugares":null,"clean_state":"Invalid lat lat and long","founded_year":1999.0},{"index":371,"name":"Vlingo","category_code":"mobile","Lugares":{"type":"Point","coordinates":[-71.118999,42.372912]},"clean_state":"success","founded_year":2006.0},{"index":372,"name":"DotBlu","category_code":"web","Lugares":{"type":"Point","coordinates":[-95.712891,37.09024]},"clean_state":"success","founded_year":2007.0},{"index":373,"name":"Docstoc","category_code":"web","Lugares":{"type":"Point","coordinates":[-118.495025,34.018275]},"clean_state":"success","founded_year":2007.0},{"index":375,"name":"Shock Treatment Management","category_code":"web","Lugares":{"type":"Point","coordinates":[-122.339859,47.610332]},"clean_state":"success","founded_year":2004.0},{"index":376,"name":"Mevio","category_code":"games_video","Lugares":{"type":"Point","coordinates":[-122.392142,37.782263]},"clean_state":"success","founded_year":2004.0},{"index":377,"name":"Covestor","category_code":"finance","Lugares":null,"clean_state":"Invalid lat lat and long","founded_year":2005.0},{"index":377,"name":"Covestor","category_code":"finance","Lugares":{"type":"Point","coordinates":[-0.1433689,51.5194201]},"clean_state":"success","founded_year":2005.0},{"index":378,"name":"TechCrunch","category_code":"news","Lugares":{"type":"Point","coordinates":[-122.1490582,37.4459832]},"clean_state":"success","founded_year":2005.0},{"index":379,"name":"Pluck","category_code":"web","Lugares":{"type":"Point","coordinates":[-97.745209,30.268735]},"clean_state":"success","founded_year":2003.0},{"index":381,"name":"NewsGator","category_code":"enterprise","Lugares":{"type":"Point","coordinates":[-104.988123,39.755092]},"clean_state":"success","founded_year":2004.0},{"index":382,"name":"BitPass","category_code":"web","Lugares":{"type":"Point","coordinates":[-122.072981,37.40047]},"clean_state":"success","founded_year":2002.0},{"index":383,"name":"Kelkoo","category_code":"ecommerce","Lugares":{"type":"Point","coordinates":[-95.712891,37.09024]},"clean_state":"success","founded_year":1999.0},{"index":385,"name":"MySpace","category_code":"network_hosting","Lugares":{"type":"Point","coordinates":[-118.372953,34.076061]},"clean_state":"success","founded_year":2003.0},{"index":386,"name":"CinemaNow","category_code":"web","Lugares":{"type":"Point","coordinates":[-118.432526,33.983543]},"clean_state":"success","founded_year":1999.0},{"index":387,"name":"sezmi","category_code":"games_video","Lugares":{"type":"Point","coordinates":[-122.265869,37.524422]},"clean_state":"success","founded_year":2007.0},{"index":387,"name":"sezmi","category_code":"games_video","Lugares":{"type":"Point","coordinates":[-118.453218,34.017373]},"clean_state":"success","founded_year":2007.0},{"index":387,"name":"sezmi","category_code":"games_video","Lugares":{"type":"Point","coordinates":[-80.157296,26.207024]},"clean_state":"success","founded_year":2007.0},{"index":390,"name":"Alibaba","category_code":"ecommerce","Lugares":null,"clean_state":"Invalid lat lat and long","founded_year":1999.0},{"index":391,"name":"eHarmony","category_code":"web","Lugares":{"type":"Point","coordinates":[-118.132351,34.145946]},"clean_state":"success","founded_year":2000.0},{"index":392,"name":"Heavy","category_code":"web","Lugares":{"type":"Point","coordinates":[-73.98962,40.753385]},"clean_state":"success","founded_year":1999.0},{"index":394,"name":"Exabre","category_code":"web","Lugares":null,"clean_state":"Invalid lat lat and long","founded_year":2005.0},{"index":395,"name":"Friendster","category_code":"web","Lugares":{"type":"Point","coordinates":[101.686855,3.139003]},"clean_state":"success","founded_year":2001.0},{"index":396,"name":"MusicGremlin","category_code":"hardware","Lugares":{"type":"Point","coordinates":[-95.712891,37.09024]},"clean_state":"success","founded_year":1988.0},{"index":398,"name":"WeatherBug","category_code":"web","Lugares":{"type":"Point","coordinates":[-77.2630048,39.2009241]},"clean_state":"success","founded_year":1993.0},{"index":399,"name":"Greystripe","category_code":"advertising","Lugares":{"type":"Point","coordinates":[-122.39323,37.710677]},"clean_state":"success","founded_year":2005.0},{"index":401,"name":"ReachLocal","category_code":"advertising","Lugares":{"type":"Point","coordinates":[-72.188584,41.53155]},"clean_state":"success","founded_year":2004.0},{"index":401,"name":"ReachLocal","category_code":"advertising","Lugares":{"type":"Point","coordinates":[-79.338246,43.7192415]},"clean_state":"success","founded_year":2004.0},{"index":401,"name":"ReachLocal","category_code":"advertising","Lugares":null,"clean_state":"Invalid lat lat and long","founded_year":2004.0},{"index":401,"name":"ReachLocal","category_code":"advertising","Lugares":null,"clean_state":"Invalid lat lat and long","founded_year":2004.0},{"index":401,"name":"ReachLocal","category_code":"advertising","Lugares":null,"clean_state":"Invalid lat lat and long","founded_year":2004.0},{"index":403,"name":"Yeigo","category_code":"mobile","Lugares":null,"clean_state":"Invalid lat lat and long","founded_year":2005.0},{"index":404,"name":"Nielsen","category_code":"web","Lugares":{"type":"Point","coordinates":[-73.991933,40.731118]},"clean_state":"success","founded_year":1922.0},{"index":405,"name":"DAVE Networks","category_code":"web","Lugares":{"type":"Point","coordinates":[-118.423423,33.979033]},"clean_state":"success","founded_year":2003.0},{"index":405,"name":"DAVE Networks","category_code":"web","Lugares":{"type":"Point","coordinates":[-118.439787,33.979506]},"clean_state":"success","founded_year":2003.0},{"index":406,"name":"Trulia","category_code":"search","Lugares":{"type":"Point","coordinates":[-122.406676,37.766909]},"clean_state":"success","founded_year":2004.0},{"index":407,"name":"Netblue","category_code":"web","Lugares":{"type":"Point","coordinates":[-95.712891,37.09024]},"clean_state":"success","founded_year":2002.0},{"index":408,"name":"dpreview","category_code":"web","Lugares":{"type":"Point","coordinates":[-3.435973,55.378051]},"clean_state":"success","founded_year":1998.0},{"index":409,"name":"NexTag","category_code":"web","Lugares":{"type":"Point","coordinates":[-122.317471,37.554595]},"clean_state":"success","founded_year":1999.0},{"index":410,"name":"TechTarget","category_code":"enterprise","Lugares":{"type":"Point","coordinates":[-95.712891,37.09024]},"clean_state":"success","founded_year":1999.0},{"index":412,"name":"TubeMogul","category_code":"advertising","Lugares":{"type":"Point","coordinates":[-122.286493,37.836957]},"clean_state":"success","founded_year":2006.0},{"index":413,"name":"Sun Microsystems","category_code":"enterprise","Lugares":{"type":"Point","coordinates":[-121.955463,37.394791]},"clean_state":"success","founded_year":1982.0},{"index":414,"name":"Lastminute","category_code":"web","Lugares":{"type":"Point","coordinates":[-95.712891,37.09024]},"clean_state":"success","founded_year":1998.0},{"index":415,"name":"Sabre","category_code":"web","Lugares":{"type":"Point","coordinates":[-97.1599393,32.9819881]},"clean_state":"success","founded_year":1960.0},{"index":417,"name":"SpiralFrog","category_code":"games_video","Lugares":{"type":"Point","coordinates":[-95.712891,37.09024]},"clean_state":"success","founded_year":2004.0},{"index":421,"name":"Multiply","category_code":"ecommerce","Lugares":{"type":"Point","coordinates":[-80.097742,26.400499]},"clean_state":"success","founded_year":2003.0},{"index":421,"name":"Multiply","category_code":"ecommerce","Lugares":null,"clean_state":"Invalid lat lat and long","founded_year":2003.0},{"index":422,"name":"Shopzilla","category_code":"web","Lugares":{"type":"Point","coordinates":[-95.712891,37.09024]},"clean_state":"success","founded_year":1996.0},{"index":422,"name":"Shopzilla","category_code":"web","Lugares":null,"clean_state":"Invalid lat lat and long","founded_year":1996.0},{"index":422,"name":"Shopzilla","category_code":"web","Lugares":null,"clean_state":"Invalid lat lat and long","founded_year":1996.0},{"index":422,"name":"Shopzilla","category_code":"web","Lugares":null,"clean_state":"Invalid lat lat and long","founded_year":1996.0},{"index":423,"name":"Sportsline","category_code":"web","Lugares":{"type":"Point","coordinates":[-95.712891,37.09024]},"clean_state":"success","founded_year":1994.0},{"index":424,"name":"Webshots","category_code":"games_video","Lugares":null,"clean_state":"Invalid lat lat and long","founded_year":1995.0},{"index":425,"name":"LimeLife","category_code":"news","Lugares":{"type":"Point","coordinates":[-122.169472,37.48413]},"clean_state":"success","founded_year":2004.0},{"index":427,"name":"MIVA","category_code":"advertising","Lugares":{"type":"Point","coordinates":[-73.9932793,40.733276]},"clean_state":"success","founded_year":1999.0},{"index":428,"name":"OpenTable","category_code":"web","Lugares":{"type":"Point","coordinates":[-122.405265,37.785647]},"clean_state":"success","founded_year":1998.0},{"index":429,"name":"LocaModa","category_code":"advertising","Lugares":{"type":"Point","coordinates":[-71.104329,42.358822]},"clean_state":"success","founded_year":2007.0},{"index":430,"name":"Espotting","category_code":"advertising","Lugares":{"type":"Point","coordinates":[-95.712891,37.09024]},"clean_state":"success","founded_year":2000.0},{"index":431,"name":"airG","category_code":"search","Lugares":{"type":"Point","coordinates":[-75.066111,3.046111]},"clean_state":"success","founded_year":2000.0},{"index":432,"name":"YouBeQB","category_code":"games_video","Lugares":{"type":"Point","coordinates":[-122.151158,47.597965]},"clean_state":"success","founded_year":2008.0},{"index":433,"name":"MocoSpace","category_code":"games_video","Lugares":{"type":"Point","coordinates":[-71.058768,42.350274]},"clean_state":"success","founded_year":2005.0},{"index":434,"name":"RampedMedia","category_code":"web","Lugares":{"type":"Point","coordinates":[-90.216499,38.618874]},"clean_state":"success","founded_year":2006.0},{"index":435,"name":"Seedcamp","category_code":"finance","Lugares":{"type":"Point","coordinates":[-0.1418973,51.5108803]},"clean_state":"success","founded_year":2007.0},{"index":438,"name":"Digitas","category_code":"web","Lugares":{"type":"Point","coordinates":[-95.712891,37.09024]},"clean_state":"success","founded_year":1980.0},{"index":438,"name":"Digitas","category_code":"web","Lugares":{"type":"Point","coordinates":[2.2673953,48.882314]},"clean_state":"success","founded_year":1980.0},{"index":439,"name":"eMusic","category_code":"games_video","Lugares":null,"clean_state":"Invalid lat lat and long","founded_year":1998.0},{"index":442,"name":"Yap","category_code":"messaging","Lugares":{"type":"Point","coordinates":[-80.856178,35.22806]},"clean_state":"success","founded_year":2006.0},{"index":443,"name":"Adknowledge","category_code":"advertising","Lugares":{"type":"Point","coordinates":[-94.597896,39.044694]},"clean_state":"success","founded_year":2004.0},{"index":443,"name":"Adknowledge","category_code":"advertising","Lugares":{"type":"Point","coordinates":[-73.992463,40.748901]},"clean_state":"success","founded_year":2004.0},{"index":443,"name":"Adknowledge","category_code":"advertising","Lugares":{"type":"Point","coordinates":[-122.401406,37.78866]},"clean_state":"success","founded_year":2004.0},{"index":443,"name":"Adknowledge","category_code":"advertising","Lugares":{"type":"Point","coordinates":[-81.879069,26.580095]},"clean_state":"success","founded_year":2004.0},{"index":443,"name":"Adknowledge","category_code":"advertising","Lugares":{"type":"Point","coordinates":[-79.3953743,43.6474554]},"clean_state":"success","founded_year":2004.0},{"index":443,"name":"Adknowledge","category_code":"advertising","Lugares":{"type":"Point","coordinates":[-0.1229212,51.5114403]},"clean_state":"success","founded_year":2004.0},{"index":443,"name":"Adknowledge","category_code":"advertising","Lugares":{"type":"Point","coordinates":[11.5582609,48.1635092]},"clean_state":"success","founded_year":2004.0},{"index":443,"name":"Adknowledge","category_code":"advertising","Lugares":{"type":"Point","coordinates":[2.3797825,48.8506065]},"clean_state":"success","founded_year":2004.0},{"index":443,"name":"Adknowledge","category_code":"advertising","Lugares":{"type":"Point","coordinates":[121.4770384,31.222622]},"clean_state":"success","founded_year":2004.0},{"index":444,"name":"Tizra","category_code":"enterprise","Lugares":{"type":"Point","coordinates":[-71.399771,41.841713]},"clean_state":"success","founded_year":2006.0},{"index":447,"name":"Minglebox","category_code":"web","Lugares":{"type":"Point","coordinates":[77.594376,12.971606]},"clean_state":"success","founded_year":2006.0},{"index":448,"name":"ChannelAdvisor","category_code":"search","Lugares":{"type":"Point","coordinates":[-78.815635,35.854483]},"clean_state":"success","founded_year":2001.0},{"index":449,"name":"TestFreaks","category_code":"ecommerce","Lugares":{"type":"Point","coordinates":[18.0571198,59.3339908]},"clean_state":"success","founded_year":2006.0},{"index":450,"name":"BlogSigs","category_code":"web","Lugares":{"type":"Point","coordinates":[-95.712891,37.09024]},"clean_state":"success","founded_year":2007.0},{"index":451,"name":"Videojug","category_code":"news","Lugares":null,"clean_state":"Invalid lat lat and long","founded_year":2006.0},{"index":453,"name":"BBE","category_code":"advertising","Lugares":{"type":"Point","coordinates":[-73.9874008,40.7445343]},"clean_state":"success","founded_year":2004.0},{"index":454,"name":"Quattro Wireless","category_code":"advertising","Lugares":{"type":"Point","coordinates":[-71.248472,42.3729]},"clean_state":"success","founded_year":2006.0},{"index":459,"name":"Fotolog","category_code":"network_hosting","Lugares":{"type":"Point","coordinates":[-73.985506,40.757929]},"clean_state":"success","founded_year":2002.0},{"index":465,"name":"Thumbplay","category_code":"music","Lugares":{"type":"Point","coordinates":[-73.997395,40.725435]},"clean_state":"success","founded_year":2004.0},{"index":466,"name":"Xfire","category_code":"games_video","Lugares":{"type":"Point","coordinates":[-118.49863,34.0184659]},"clean_state":"success","founded_year":2002.0},{"index":468,"name":"SnapTell","category_code":"software","Lugares":{"type":"Point","coordinates":[-122.128772,37.433414]},"clean_state":"success","founded_year":2006.0},{"index":469,"name":"Wonga","category_code":"web","Lugares":{"type":"Point","coordinates":[-0.1626103,51.5192042]},"clean_state":"success","founded_year":2007.0},{"index":470,"name":"Tutor","category_code":"web","Lugares":{"type":"Point","coordinates":[-74.004792,40.707921]},"clean_state":"success","founded_year":1998.0},{"index":471,"name":"PriceGrabber","category_code":"web","Lugares":{"type":"Point","coordinates":[-95.712891,37.09024]},"clean_state":"success","founded_year":1999.0},{"index":474,"name":"MicroPlace","category_code":"web","Lugares":{"type":"Point","coordinates":[-122.419204,37.775196]},"clean_state":"success","founded_year":2007.0},{"index":475,"name":"EyeJot","category_code":"web","Lugares":{"type":"Point","coordinates":[-122.3276962,47.5999337]},"clean_state":"success","founded_year":2007.0},{"index":476,"name":"Lycos","category_code":"web","Lugares":{"type":"Point","coordinates":[-71.255855,42.393662]},"clean_state":"success","founded_year":1995.0},{"index":477,"name":"Contrastream","category_code":"games_video","Lugares":{"type":"Point","coordinates":[-79.348037,43.799511]},"clean_state":"success","founded_year":2007.0},{"index":479,"name":"Marchex","category_code":"mobile","Lugares":{"type":"Point","coordinates":[-122.336825,47.611201]},"clean_state":"success","founded_year":2000.0},{"index":480,"name":"Finetune","category_code":"games_video","Lugares":null,"clean_state":"Invalid lat lat and long","founded_year":2005.0},{"index":481,"name":"Collagr","category_code":"web","Lugares":null,"clean_state":"Invalid lat lat and long","founded_year":2007.0},{"index":483,"name":"CrowdSpirit","category_code":"web","Lugares":{"type":"Point","coordinates":[5.659066,45.206889]},"clean_state":"success","founded_year":2007.0},{"index":484,"name":"Spiceworks","category_code":"hardware","Lugares":{"type":"Point","coordinates":[-97.753739,30.386601]},"clean_state":"success","founded_year":2006.0},{"index":485,"name":"OnForce","category_code":"enterprise","Lugares":{"type":"Point","coordinates":[-71.262508,42.47218]},"clean_state":"success","founded_year":2003.0},{"index":486,"name":"iVillage","category_code":"web","Lugares":{"type":"Point","coordinates":[-73.985506,40.757929]},"clean_state":"success","founded_year":1995.0},{"index":487,"name":"Daylife","category_code":"enterprise","Lugares":{"type":"Point","coordinates":[-73.886452,40.643438]},"clean_state":"success","founded_year":2006.0},{"index":489,"name":"OMGPOP","category_code":"games_video","Lugares":{"type":"Point","coordinates":[-74.001704,40.723384]},"clean_state":"success","founded_year":2006.0},{"index":489,"name":"OMGPOP","category_code":"games_video","Lugares":null,"clean_state":"Invalid lat lat and long","founded_year":2006.0},{"index":490,"name":"Ooyala","category_code":"analytics","Lugares":{"type":"Point","coordinates":[-122.084171,37.386665]},"clean_state":"success","founded_year":2007.0},{"index":490,"name":"Ooyala","category_code":"analytics","Lugares":null,"clean_state":"Invalid lat lat and long","founded_year":2007.0},{"index":490,"name":"Ooyala","category_code":"analytics","Lugares":null,"clean_state":"Invalid lat lat and long","founded_year":2007.0},{"index":490,"name":"Ooyala","category_code":"analytics","Lugares":null,"clean_state":"Invalid lat lat and long","founded_year":2007.0},{"index":491,"name":"Crunchyroll","category_code":"games_video","Lugares":{"type":"Point","coordinates":[-122.393229,37.781265]},"clean_state":"success","founded_year":2008.0},{"index":492,"name":"SayNow","category_code":"mobile","Lugares":{"type":"Point","coordinates":[-122.143915,37.42746]},"clean_state":"success","founded_year":2005.0},{"index":493,"name":"ContactOffice","category_code":"web","Lugares":{"type":"Point","coordinates":[4.400604,50.796645]},"clean_state":"success","founded_year":2000.0},{"index":494,"name":"PixSense","category_code":"mobile","Lugares":{"type":"Point","coordinates":[-121.973228,37.387114]},"clean_state":"success","founded_year":2003.0},{"index":495,"name":"Yugma","category_code":"games_video","Lugares":{"type":"Point","coordinates":[-93.4094629,44.865243]},"clean_state":"success","founded_year":2003.0},{"index":496,"name":"Behance","category_code":"web","Lugares":{"type":"Point","coordinates":[-74.004592,40.74406]},"clean_state":"success","founded_year":2006.0},{"index":498,"name":"MyHeritage","category_code":"social","Lugares":{"type":"Point","coordinates":[34.856173,32.029748]},"clean_state":"success","founded_year":2005.0},{"index":499,"name":"CircleUp","category_code":"finance","Lugares":null,"clean_state":"Invalid lat lat and long","founded_year":2011.0},{"index":501,"name":"ThemBid","category_code":"ecommerce","Lugares":{"type":"Point","coordinates":[-117.572967,34.099253]},"clean_state":"success","founded_year":2007.0},{"index":503,"name":"Magnify","category_code":"games_video","Lugares":null,"clean_state":"Invalid lat lat and long","founded_year":2006.0},{"index":504,"name":"AgentMatch","category_code":"web","Lugares":null,"clean_state":"Invalid lat lat and long","founded_year":2006.0},{"index":505,"name":"FAROO","category_code":"search","Lugares":{"type":"Point","coordinates":[-0.1065551,51.5195795]},"clean_state":"success","founded_year":2007.0},{"index":507,"name":"hulu","category_code":"games_video","Lugares":{"type":"Point","coordinates":[-118.456806,34.031276]},"clean_state":"success","founded_year":2007.0},{"index":508,"name":"imeem","category_code":"music","Lugares":{"type":"Point","coordinates":[-122.391236,37.779624]},"clean_state":"success","founded_year":2003.0},{"index":509,"name":"Nemedia","category_code":"advertising","Lugares":null,"clean_state":"Invalid lat lat and long","founded_year":2002.0},{"index":510,"name":"OrganizedWisdom","category_code":"other","Lugares":{"type":"Point","coordinates":[-73.981709,40.775537]},"clean_state":"success","founded_year":2007.0},{"index":511,"name":"LineUpNewYork","category_code":"web","Lugares":{"type":"Point","coordinates":[-73.986771,40.753202]},"clean_state":"success","founded_year":2007.0},{"index":512,"name":"MediaPops","category_code":"games_video","Lugares":{"type":"Point","coordinates":[-122.333523,47.611012]},"clean_state":"success","founded_year":2007.0},{"index":513,"name":"ElephantDrive","category_code":"web","Lugares":null,"clean_state":"Invalid lat lat and long","founded_year":2005.0},{"index":514,"name":"AdMob","category_code":"advertising","Lugares":{"type":"Point","coordinates":[-122.324621,37.563585]},"clean_state":"success","founded_year":2006.0},{"index":515,"name":"Musicshake","category_code":"games_video","Lugares":null,"clean_state":"Invalid lat lat and long","founded_year":2005.0},{"index":517,"name":"Trutap","category_code":"software","Lugares":null,"clean_state":"Invalid lat lat and long","founded_year":1989.0},{"index":518,"name":"BeFunky","category_code":"photo_video","Lugares":null,"clean_state":"Invalid lat lat and long","founded_year":2007.0},{"index":518,"name":"BeFunky","category_code":"photo_video","Lugares":{"type":"Point","coordinates":[-122.4194155,37.7749295]},"clean_state":"success","founded_year":2007.0},{"index":519,"name":"Attributor","category_code":"software","Lugares":{"type":"Point","coordinates":[-122.228595,37.453687]},"clean_state":"success","founded_year":2005.0},{"index":521,"name":"GotStatus","category_code":"web","Lugares":{"type":"Point","coordinates":[-97.770174,30.34497]},"clean_state":"success","founded_year":2007.0},{"index":522,"name":"4INFO","category_code":"advertising","Lugares":null,"clean_state":"Invalid lat lat and long","founded_year":2004.0},{"index":523,"name":"Mozy","category_code":"public_relations","Lugares":{"type":"Point","coordinates":[-111.777531,40.357978]},"clean_state":"success","founded_year":2005.0},{"index":524,"name":"PeekYou","category_code":"search","Lugares":{"type":"Point","coordinates":[-73.985506,40.757929]},"clean_state":"success","founded_year":2012.0},{"index":525,"name":"Viewdle","category_code":"analytics","Lugares":null,"clean_state":"Invalid lat lat and long","founded_year":2006.0},{"index":526,"name":"WooMe","category_code":"web","Lugares":null,"clean_state":"Invalid lat lat and long","founded_year":2000.0},{"index":527,"name":"Mixx","category_code":"web","Lugares":{"type":"Point","coordinates":[-79.420926,38.003376]},"clean_state":"success","founded_year":2007.0},{"index":528,"name":"ZocDoc","category_code":"health","Lugares":null,"clean_state":"Invalid lat lat and long","founded_year":2007.0},{"index":529,"name":"Kerpoof","category_code":"web","Lugares":{"type":"Point","coordinates":[-105.38018,40.048078]},"clean_state":"success","founded_year":2006.0},{"index":530,"name":"ITema","category_code":"software","Lugares":{"type":"Point","coordinates":[-72.105722,41.345754]},"clean_state":"success","founded_year":2007.0},{"index":531,"name":"app2you","category_code":"web","Lugares":{"type":"Point","coordinates":[-117.274609,32.847521]},"clean_state":"success","founded_year":2006.0},{"index":532,"name":"Sertifi","category_code":"software","Lugares":null,"clean_state":"Invalid lat lat and long","founded_year":2005.0},{"index":533,"name":"HylioSoft","category_code":"web","Lugares":{"type":"Point","coordinates":[6.182658,49.1004]},"clean_state":"success","founded_year":2004.0},{"index":534,"name":"Orgoo","category_code":"web","Lugares":{"type":"Point","coordinates":[-118.4419012,34.0481711]},"clean_state":"success","founded_year":2005.0},{"index":535,"name":"Wixi","category_code":"network_hosting","Lugares":null,"clean_state":"Invalid lat lat and long","founded_year":2007.0},{"index":536,"name":"YourStreet","category_code":"web","Lugares":{"type":"Point","coordinates":[-122.421341,37.793742]},"clean_state":"success","founded_year":2006.0},{"index":537,"name":"GENWI","category_code":"mobile","Lugares":{"type":"Point","coordinates":[-111.9035,33.8171]},"clean_state":"success","founded_year":2010.0},{"index":538,"name":"Vidoop","category_code":"software","Lugares":{"type":"Point","coordinates":[-122.675448,45.5241278]},"clean_state":"success","founded_year":2006.0},{"index":539,"name":"Jive Software","category_code":"software","Lugares":null,"clean_state":"Invalid lat lat and long","founded_year":2001.0},{"index":539,"name":"Jive Software","category_code":"software","Lugares":null,"clean_state":"Invalid lat lat and long","founded_year":2001.0},