[{"name":"Swotti","category_code":"public_relations","office":{"type":"Point","coordinates":[-3.70325,40.416741]},"clean_state":"success","latitude":40.416741,"longitude":-3.70325},{"name":"NotePub","category_code":"web","office":{"type":"Point","coordinates":[-3.70325,40.416741]},"clean_state":"success","latitude":40.416741,"longitude":-3.70325},{"name":"AtelMedia","category_code":"software","office":{"type":"Point","coordinates":[-3.70325,40.416741]},"clean_state":"success","latitude":40.416741,"longitude":-3.70325},{"name":"Netsize","category_code":"mobile","office":{"type":"Point","coordinates":[-3.7032498,40.4167413]},"clean_state":"success","latitude":40.4167413,"longitude":-3.7032498},{"name":"BuyVIP","category_code":"ecommerce","office":{"type":"Point","coordinates":[-3.7032498,40.4167413]},"clean_state":"success","latitude":40.4167413,"longitude":-3.7032498},{"name":"Nexway","category_code":"ecommerce","office":{"type":"Point","coordinates":[-3.7033074,40.4142986]},"clean_state":"success","latitude":40.4142986,"longitude":-3.7033074},{"name":"Daily Flat Rental","category_code":"ecommerce","office":{"type":"Point","coordinates":[-3.703248,40.412323]},"clean_state":"success","latitude":40.412323,"longitude":-3.703248},{"name":"Daily Flat Rental","category_code":"ecommerce","office":{"type":"Point","coordinates":[-3.703248,40.412323]},"clean_state":"success","latitude":40.412323,"longitude":-3.703248},{"name":"ASPgems","category_code":"software","office":{"type":"Point","coordinates":[-3.6992667,40.4165967]},"clean_state":"success","latitude":40.4165967,"longitude":-3.6992667},{"name":"Genasys","category_code":"software","office":{"type":"Point","coordinates":[-3.6988729,40.4161835]},"clean_state":"success","latitude":40.4161835,"longitude":-3.6988729}]