[{"level_0":0,"name":"Jaizkibel","adress":"Calle de Jos\u00e9 Del Hierro, 29","latitude":-3.64552,"longitude":40.4394,"Lugares":{"type":"Point","coordinates":[40.4394,-3.64552]}},{"level_0":1,"name":"Escuela Infantil Pipo\u2019s","adress":"Calle de C\u00e1ceres, 50","latitude":-3.70036,"longitude":40.39892,"Lugares":{"type":"Point","coordinates":[40.39892,-3.70036]}},{"level_0":2,"name":"El Bosque Encantado","adress":"Calle de Antonio L\u00f3pez, 246","latitude":-3.69633,"longitude":40.38251,"Lugares":{"type":"Point","coordinates":[40.38251,-3.69633]}},{"level_0":3,"name":"Guarderia Arco de Colores","adress":"Calle Gumersindo Azcarate 32","latitude":-3.70966,"longitude":40.38742,"Lugares":{"type":"Point","coordinates":[40.38742,-3.70966]}},{"level_0":4,"name":"Guarderia Infantil Primeros Pasos","adress":"Calle Campo de la Paloma, 12","latitude":-3.64694,"longitude":40.38373,"Lugares":{"type":"Point","coordinates":[40.38373,-3.64694]}},{"level_0":5,"name":"Estrella Amdal","adress":"Calle Francisco Vitoria, 4","latitude":-3.67408,"longitude":40.40827,"Lugares":{"type":"Point","coordinates":[40.40827,-3.67408]}},{"level_0":6,"name":"Rocho Carmona Maria del Carmen","adress":"Calle Reyes Magos, 6","latitude":-3.6747,"longitude":40.41162,"Lugares":{"type":"Point","coordinates":[40.41162,-3.6747]}},{"level_0":7,"name":"Niro","adress":"Calle Andres Torrejon, 18","latitude":-3.67206,"longitude":40.43681,"Lugares":{"type":"Point","coordinates":[40.43681,-3.67206]}},{"level_0":8,"name":"Cei Fantas\u00eda","adress":"Calle Justa Garc\u00eda 12","latitude":-3.67911,"longitude":40.39768,"Lugares":{"type":"Point","coordinates":[40.39768,-3.67911]}},{"level_0":9,"name":"Teddy Centro Infantil","adress":"Calle Leon GIL de Palacio, 5 - LC 10","latitude":-3.69788,"longitude":40.36078,"Lugares":{"type":"Point","coordinates":[40.36078,-3.69788]}},{"level_0":10,"name":"Cei Pamacoti-Estimulacion","adress":"Calle Puerto de Cotos, 7","latitude":-3.65848,"longitude":40.40077,"Lugares":{"type":"Point","coordinates":[40.40077,-3.65848]}},{"level_0":11,"name":"Cuquitos Guarderia","adress":"Calle Candilejas, 2","latitude":-3.63736,"longitude":40.44216,"Lugares":{"type":"Point","coordinates":[40.44216,-3.63736]}},{"level_0":12,"name":"Guarderia Infantil El Camino","adress":"Calle Salitre, 33","latitude":-3.69662,"longitude":40.49142,"Lugares":{"type":"Point","coordinates":[40.49142,-3.69662]}},{"level_0":13,"name":"Guarderias Reunidas","adress":"Calle Luis Mitjans, 29","latitude":-3.67056,"longitude":40.40056,"Lugares":{"type":"Point","coordinates":[40.40056,-3.67056]}},{"level_0":14,"name":"Guarderia Kika","adress":"Calle Antracita, 24","latitude":-3.68797,"longitude":40.39092,"Lugares":{"type":"Point","coordinates":[40.39092,-3.68797]}},{"level_0":15,"name":"Blas Suarez Maria Luisa","adress":"Plaza Mariano de Cavia, 2","latitude":-3.6454,"longitude":40.44134,"Lugares":{"type":"Point","coordinates":[40.44134,-3.6454]}},{"level_0":16,"name":"Estrella Amdal","adress":"Calle Francisco Vitoria, 19","latitude":-3.67269,"longitude":40.40774,"Lugares":{"type":"Point","coordinates":[40.40774,-3.67269]}},{"level_0":17,"name":"Tenacio Vara Francisco","adress":"Calle Homero, 2","latitude":-3.66894,"longitude":40.39118,"Lugares":{"type":"Point","coordinates":[40.39118,-3.66894]}},{"level_0":18,"name":"Fema y Delsa","adress":"Calle Walia, 7","latitude":-3.82469,"longitude":40.4713,"Lugares":{"type":"Point","coordinates":[40.4713,-3.82469]}}]