[{"index":16341,"name":"Real Time Content","category_code":"advertising","Lugares":{"type":"Point","coordinates":[-73.990286,40.755959]},"clean_state":"success","founded_year":2006.0,"latitude":40.755959,"longitude":-73.990286},{"index":1002,"name":"ideeli","category_code":"ecommerce","Lugares":{"type":"Point","coordinates":[-73.990396,40.755978]},"clean_state":"success","founded_year":2007.0,"latitude":40.755978,"longitude":-73.990396},{"index":14022,"name":"Magnetic","category_code":"advertising","Lugares":{"type":"Point","coordinates":[-73.990152,40.758343]},"clean_state":"success","founded_year":2008.0,"latitude":40.758343,"longitude":-73.990152},{"index":13052,"name":"MindSmack","category_code":"games_video","Lugares":{"type":"Point","coordinates":[-73.989987,40.758492]},"clean_state":"success","founded_year":1999.0,"latitude":40.758492,"longitude":-73.989987},{"index":4333,"name":"MYSTYLEPOST","category_code":"network_hosting","Lugares":{"type":"Point","coordinates":[-73.989622,40.754901]},"clean_state":"success","founded_year":2007.0,"latitude":40.754901,"longitude":-73.989622},{"index":6522,"name":"Thomson Reuters","category_code":"public_relations","Lugares":{"type":"Point","coordinates":[-73.9871847,40.7564318]},"clean_state":"success","founded_year":2008.0,"latitude":40.7564318,"longitude":-73.9871847},{"index":7406,"name":"Thomson Reuters","category_code":"public_relations","Lugares":{"type":"Point","coordinates":[-73.9871847,40.7564318]},"clean_state":"success","founded_year":2008.0,"latitude":40.7564318,"longitude":-73.9871847},{"index":5783,"name":"XB Labs","category_code":"software","Lugares":{"type":"Point","coordinates":[-73.991605,40.755329]},"clean_state":"success","founded_year":2005.0,"latitude":40.755329,"longitude":-73.991605},{"index":6507,"name":"Papervitamins","category_code":"web","Lugares":{"type":"Point","coordinates":[-73.986951,40.756054]},"clean_state":"success","founded_year":2008.0,"latitude":40.756054,"longitude":-73.986951},{"index":10663,"name":"Livekick","category_code":"web","Lugares":{"type":"Point","coordinates":[-73.986951,40.756054]},"clean_state":"success","founded_year":2009.0,"latitude":40.756054,"longitude":-73.986951},{"index":17487,"name":"Palyon Medical","category_code":"biotech","Lugares":{"type":"Point","coordinates":[-73.986951,40.756054]},"clean_state":"success","founded_year":2004.0,"latitude":40.756054,"longitude":-73.986951},{"index":16870,"name":"Primospot","category_code":"other","Lugares":{"type":"Point","coordinates":[-73.986951,40.756054]},"clean_state":"success","founded_year":2007.0,"latitude":40.756054,"longitude":-73.986951},{"index":10324,"name":"People Capital","category_code":"web","Lugares":{"type":"Point","coordinates":[-73.986951,40.756054]},"clean_state":"success","founded_year":2008.0,"latitude":40.756054,"longitude":-73.986951},{"index":16694,"name":"bTrendie","category_code":"ecommerce","Lugares":{"type":"Point","coordinates":[-73.986951,40.756054]},"clean_state":"success","founded_year":2008.0,"latitude":40.756054,"longitude":-73.986951},{"index":16588,"name":"Udorse","category_code":"web","Lugares":{"type":"Point","coordinates":[-73.986951,40.756054]},"clean_state":"success","founded_year":2009.0,"latitude":40.756054,"longitude":-73.986951},{"index":5048,"name":"Medialets","category_code":"advertising","Lugares":{"type":"Point","coordinates":[-73.986951,40.756054]},"clean_state":"success","founded_year":2008.0,"latitude":40.756054,"longitude":-73.986951},{"index":10188,"name":"Odiogo","category_code":"mobile","Lugares":{"type":"Point","coordinates":[-73.986951,40.756054]},"clean_state":"success","founded_year":2007.0,"latitude":40.756054,"longitude":-73.986951},{"index":16385,"name":"GameGround","category_code":"games_video","Lugares":{"type":"Point","coordinates":[-73.986951,40.756054]},"clean_state":"success","founded_year":2007.0,"latitude":40.756054,"longitude":-73.986951},{"index":16164,"name":"Yoostar","category_code":"games_video","Lugares":{"type":"Point","coordinates":[-73.986951,40.756054]},"clean_state":"success","founded_year":2007.0,"latitude":40.756054,"longitude":-73.986951},{"index":10080,"name":"PlaceVine","category_code":"advertising","Lugares":{"type":"Point","coordinates":[-73.986951,40.756054]},"clean_state":"success","founded_year":2007.0,"latitude":40.756054,"longitude":-73.986951},{"index":15408,"name":"Delivr","category_code":"advertising","Lugares":{"type":"Point","coordinates":[-73.986951,40.756054]},"clean_state":"success","founded_year":2009.0,"latitude":40.756054,"longitude":-73.986951},{"index":14038,"name":"UniversityJunction","category_code":"other","Lugares":{"type":"Point","coordinates":[-73.986951,40.756054]},"clean_state":"success","founded_year":2008.0,"latitude":40.756054,"longitude":-73.986951},{"index":7546,"name":"artandseek","category_code":"other","Lugares":{"type":"Point","coordinates":[-73.986951,40.756054]},"clean_state":"success","founded_year":2007.0,"latitude":40.756054,"longitude":-73.986951},{"index":8509,"name":"Healism","category_code":"web","Lugares":{"type":"Point","coordinates":[-73.986951,40.756054]},"clean_state":"success","founded_year":2008.0,"latitude":40.756054,"longitude":-73.986951},{"index":13629,"name":"Muckety","category_code":"other","Lugares":{"type":"Point","coordinates":[-73.986951,40.756054]},"clean_state":"success","founded_year":2006.0,"latitude":40.756054,"longitude":-73.986951},{"index":13635,"name":"Hirshorn Zuckerman Design Group","category_code":"advertising","Lugares":{"type":"Point","coordinates":[-73.986951,40.756054]},"clean_state":"success","founded_year":1987.0,"latitude":40.756054,"longitude":-73.986951},{"index":12844,"name":"VSC Consulting","category_code":"public_relations","Lugares":{"type":"Point","coordinates":[-73.986951,40.756054]},"clean_state":"success","founded_year":2002.0,"latitude":40.756054,"longitude":-73.986951},{"index":13628,"name":"Wee Web","category_code":"web","Lugares":{"type":"Point","coordinates":[-73.986951,40.756054]},"clean_state":"success","founded_year":2008.0,"latitude":40.756054,"longitude":-73.986951},{"index":12751,"name":"The Talk Market","category_code":"ecommerce","Lugares":{"type":"Point","coordinates":[-73.986951,40.756054]},"clean_state":"success","founded_year":2007.0,"latitude":40.756054,"longitude":-73.986951},{"index":7415,"name":"Papervitamins","category_code":"web","Lugares":{"type":"Point","coordinates":[-73.986951,40.756054]},"clean_state":"success","founded_year":2008.0,"latitude":40.756054,"longitude":-73.986951},{"index":11721,"name":"Pictela","category_code":"advertising","Lugares":{"type":"Point","coordinates":[-73.986951,40.756054]},"clean_state":"success","founded_year":2008.0,"latitude":40.756054,"longitude":-73.986951},{"index":6641,"name":"artandseek","category_code":"other","Lugares":{"type":"Point","coordinates":[-73.986951,40.756054]},"clean_state":"success","founded_year":2007.0,"latitude":40.756054,"longitude":-73.986951},{"index":11368,"name":"Dragonfly","category_code":"web","Lugares":{"type":"Point","coordinates":[-73.986951,40.756054]},"clean_state":"success","founded_year":2006.0,"latitude":40.756054,"longitude":-73.986951},{"index":18702,"name":"Conversition","category_code":"web","Lugares":{"type":"Point","coordinates":[-73.986951,40.756054]},"clean_state":"success","founded_year":2008.0,"latitude":40.756054,"longitude":-73.986951},{"index":11127,"name":"Fotohoo","category_code":"games_video","Lugares":{"type":"Point","coordinates":[-73.986951,40.756054]},"clean_state":"success","founded_year":2007.0,"latitude":40.756054,"longitude":-73.986951},{"index":18262,"name":"CPower","category_code":"cleantech","Lugares":{"type":"Point","coordinates":[-73.986951,40.756054]},"clean_state":"success","founded_year":2000.0,"latitude":40.756054,"longitude":-73.986951},{"index":18170,"name":"famebook","category_code":"web","Lugares":{"type":"Point","coordinates":[-73.986951,40.756054]},"clean_state":"success","founded_year":2008.0,"latitude":40.756054,"longitude":-73.986951},{"index":4231,"name":"Unicast","category_code":"advertising","Lugares":{"type":"Point","coordinates":[-73.988834,40.754699]},"clean_state":"success","founded_year":1998.0,"latitude":40.754699,"longitude":-73.988834},{"index":4736,"name":"ShopMyCloset","category_code":"ecommerce","Lugares":{"type":"Point","coordinates":[-73.986941,40.75604]},"clean_state":"success","founded_year":2003.0,"latitude":40.75604,"longitude":-73.986941},{"index":4615,"name":"My Damn Channel","category_code":"games_video","Lugares":{"type":"Point","coordinates":[-73.988543,40.754762]},"clean_state":"success","founded_year":2007.0,"latitude":40.754762,"longitude":-73.988543},{"index":5732,"name":"Admeld","category_code":"advertising","Lugares":{"type":"Point","coordinates":[-73.992152,40.755253]},"clean_state":"success","founded_year":2007.0,"latitude":40.755253,"longitude":-73.992152},{"index":12301,"name":"TravelCLICK","category_code":"hospitality","Lugares":{"type":"Point","coordinates":[-73.9868495,40.755437]},"clean_state":"success","founded_year":1999.0,"latitude":40.755437,"longitude":-73.9868495},{"index":4373,"name":"CPXi","category_code":"web","Lugares":{"type":"Point","coordinates":[-73.9869523,40.7550708]},"clean_state":"success","founded_year":2000.0,"latitude":40.7550708,"longitude":-73.9869523},{"index":2314,"name":"Wakozi","category_code":"web","Lugares":{"type":"Point","coordinates":[-73.992706,40.755409]},"clean_state":"success","founded_year":2008.0,"latitude":40.755409,"longitude":-73.992706},{"index":13573,"name":"Tech Support 4 NYC","category_code":"consulting","Lugares":{"type":"Point","coordinates":[-73.9883596,40.754142]},"clean_state":"success","founded_year":2001.0,"latitude":40.754142,"longitude":-73.9883596},{"index":1050,"name":"Xanga","category_code":"web","Lugares":{"type":"Point","coordinates":[-73.992152,40.754698]},"clean_state":"success","founded_year":1999.0,"latitude":40.754698,"longitude":-73.992152},{"index":3030,"name":"Zoomabet","category_code":"network_hosting","Lugares":{"type":"Point","coordinates":[-73.992152,40.754698]},"clean_state":"success","founded_year":2006.0,"latitude":40.754698,"longitude":-73.992152},{"index":16343,"name":"MyPRGenie","category_code":"other","Lugares":{"type":"Point","coordinates":[-73.986005,40.757375]},"clean_state":"success","founded_year":2007.0,"latitude":40.757375,"longitude":-73.986005},{"index":1970,"name":"MTV Networks","category_code":"advertising","Lugares":{"type":"Point","coordinates":[-73.986011,40.757725]},"clean_state":"success","founded_year":1984.0,"latitude":40.757725,"longitude":-73.986011},{"index":19,"name":"Viacom","category_code":"web","Lugares":{"type":"Point","coordinates":[-73.986011,40.757725]},"clean_state":"success","founded_year":1971.0,"latitude":40.757725,"longitude":-73.986011},{"index":2649,"name":"NEHST Studios","category_code":"games_video","Lugares":{"type":"Point","coordinates":[-73.992193,40.75451]},"clean_state":"success","founded_year":2007.0,"latitude":40.75451,"longitude":-73.992193},{"index":1397,"name":"Paramount Pictures","category_code":"games_video","Lugares":{"type":"Point","coordinates":[-73.9858165,40.7577017]},"clean_state":"success","founded_year":1912.0,"latitude":40.7577017,"longitude":-73.9858165},{"index":7737,"name":"AdSide","category_code":"advertising","Lugares":{"type":"Point","coordinates":[-73.991123,40.753931]},"clean_state":"success","founded_year":2007.0,"latitude":40.753931,"longitude":-73.991123},{"index":3266,"name":"Facilitas","category_code":"web","Lugares":{"type":"Point","coordinates":[-73.991123,40.753931]},"clean_state":"success","founded_year":2005.0,"latitude":40.753931,"longitude":-73.991123},{"index":6834,"name":"AdSide","category_code":"advertising","Lugares":{"type":"Point","coordinates":[-73.991123,40.753931]},"clean_state":"success","founded_year":2007.0,"latitude":40.753931,"longitude":-73.991123},{"index":3946,"name":"Ladies Who Launch","category_code":"public_relations","Lugares":{"type":"Point","coordinates":[-73.991512,40.753877]},"clean_state":"success","founded_year":2008.0,"latitude":40.753877,"longitude":-73.991512},{"index":8690,"name":"Kiwibox","category_code":"web","Lugares":{"type":"Point","coordinates":[-73.9935,40.755243]},"clean_state":"success","founded_year":1999.0,"latitude":40.755243,"longitude":-73.9935},{"index":3768,"name":"Pinch Media","category_code":"software","Lugares":{"type":"Point","coordinates":[-73.985506,40.757929]},"clean_state":"success","founded_year":2008.0,"latitude":40.757929,"longitude":-73.985506},{"index":486,"name":"iVillage","category_code":"web","Lugares":{"type":"Point","coordinates":[-73.985506,40.757929]},"clean_state":"success","founded_year":1995.0,"latitude":40.757929,"longitude":-73.985506},{"index":3694,"name":"Propertyqube","category_code":"ecommerce","Lugares":{"type":"Point","coordinates":[-73.985506,40.757929]},"clean_state":"success","founded_year":2006.0,"latitude":40.757929,"longitude":-73.985506},{"index":459,"name":"Fotolog","category_code":"network_hosting","Lugares":{"type":"Point","coordinates":[-73.985506,40.757929]},"clean_state":"success","founded_year":2002.0,"latitude":40.757929,"longitude":-73.985506},{"index":18,"name":"MeetMoi","category_code":"social","Lugares":{"type":"Point","coordinates":[-73.985506,40.757929]},"clean_state":"success","founded_year":2007.0,"latitude":40.757929,"longitude":-73.985506},{"index":3060,"name":"HyperCalc","category_code":"software","Lugares":{"type":"Point","coordinates":[-73.985506,40.757929]},"clean_state":"success","founded_year":2007.0,"latitude":40.757929,"longitude":-73.985506},{"index":2520,"name":"1938 Media","category_code":null,"Lugares":{"type":"Point","coordinates":[-73.985506,40.757929]},"clean_state":"success","founded_year":2005.0,"latitude":40.757929,"longitude":-73.985506},{"index":1005,"name":"Chictini","category_code":"network_hosting","Lugares":{"type":"Point","coordinates":[-73.985506,40.757929]},"clean_state":"success","founded_year":2007.0,"latitude":40.757929,"longitude":-73.985506},{"index":1625,"name":"Gamers Media","category_code":"web","Lugares":{"type":"Point","coordinates":[-73.985506,40.757929]},"clean_state":"success","founded_year":2007.0,"latitude":40.757929,"longitude":-73.985506},{"index":1552,"name":"Camlink","category_code":"games_video","Lugares":{"type":"Point","coordinates":[-73.985506,40.757929]},"clean_state":"success","founded_year":2007.0,"latitude":40.757929,"longitude":-73.985506},{"index":1235,"name":"Gawker Media","category_code":"games_video","Lugares":{"type":"Point","coordinates":[-73.985506,40.757929]},"clean_state":"success","founded_year":2002.0,"latitude":40.757929,"longitude":-73.985506},{"index":2246,"name":"Wiredset","category_code":null,"Lugares":{"type":"Point","coordinates":[-73.985506,40.757929]},"clean_state":"success","founded_year":2004.0,"latitude":40.757929,"longitude":-73.985506},{"index":1619,"name":"Outbrain","category_code":"web","Lugares":{"type":"Point","coordinates":[-73.985506,40.757929]},"clean_state":"success","founded_year":2006.0,"latitude":40.757929,"longitude":-73.985506},{"index":1565,"name":"Blog Talk Radio","category_code":"web","Lugares":{"type":"Point","coordinates":[-73.985506,40.757929]},"clean_state":"success","founded_year":2006.0,"latitude":40.757929,"longitude":-73.985506},{"index":1039,"name":"SnapVillage","category_code":"web","Lugares":{"type":"Point","coordinates":[-73.985506,40.757929]},"clean_state":"success","founded_year":2007.0,"latitude":40.757929,"longitude":-73.985506},{"index":904,"name":"UpNext","category_code":"mobile","Lugares":{"type":"Point","coordinates":[-73.985506,40.757929]},"clean_state":"success","founded_year":2007.0,"latitude":40.757929,"longitude":-73.985506},{"index":2381,"name":"Wists","category_code":"web","Lugares":{"type":"Point","coordinates":[-73.985506,40.757929]},"clean_state":"success","founded_year":2005.0,"latitude":40.757929,"longitude":-73.985506},{"index":524,"name":"PeekYou","category_code":"search","Lugares":{"type":"Point","coordinates":[-73.985506,40.757929]},"clean_state":"success","founded_year":2012.0,"latitude":40.757929,"longitude":-73.985506},{"index":3229,"name":"MyBloop","category_code":"network_hosting","Lugares":{"type":"Point","coordinates":[-73.985506,40.757929]},"clean_state":"success","founded_year":2006.0,"latitude":40.757929,"longitude":-73.985506},{"index":3042,"name":"Kidmondo","category_code":"web","Lugares":{"type":"Point","coordinates":[-73.985506,40.757929]},"clean_state":"success","founded_year":2008.0,"latitude":40.757929,"longitude":-73.985506},{"index":1226,"name":"Massify","category_code":"web","Lugares":{"type":"Point","coordinates":[-73.985506,40.757929]},"clean_state":"success","founded_year":2006.0,"latitude":40.757929,"longitude":-73.985506},{"index":225,"name":"Clipmarks","category_code":"photo_video","Lugares":{"type":"Point","coordinates":[-73.985506,40.757929]},"clean_state":"success","founded_year":2003.0,"latitude":40.757929,"longitude":-73.985506},{"index":1676,"name":"Totspot","category_code":"web","Lugares":{"type":"Point","coordinates":[-73.985506,40.757929]},"clean_state":"success","founded_year":2008.0,"latitude":40.757929,"longitude":-73.985506},{"index":770,"name":"Jango","category_code":"games_video","Lugares":{"type":"Point","coordinates":[-73.985506,40.757929]},"clean_state":"success","founded_year":2007.0,"latitude":40.757929,"longitude":-73.985506},{"index":392,"name":"Heavy","category_code":"web","Lugares":{"type":"Point","coordinates":[-73.98962,40.753385]},"clean_state":"success","founded_year":1999.0,"latitude":40.753385,"longitude":-73.98962},{"index":17529,"name":"OpTier","category_code":"analytics","Lugares":{"type":"Point","coordinates":[-73.985647,40.754937]},"clean_state":"success","founded_year":2005.0,"latitude":40.754937,"longitude":-73.985647},{"index":1101,"name":"yoonew","category_code":"web","Lugares":{"type":"Point","coordinates":[-73.986557,40.75362]},"clean_state":"success","founded_year":2004.0,"latitude":40.75362,"longitude":-73.986557},{"index":511,"name":"LineUpNewYork","category_code":"web","Lugares":{"type":"Point","coordinates":[-73.986771,40.753202]},"clean_state":"success","founded_year":2007.0,"latitude":40.753202,"longitude":-73.986771},{"index":11669,"name":"Eastmedia","category_code":"mobile","Lugares":{"type":"Point","coordinates":[-73.988676,40.752409]},"clean_state":"success","founded_year":1999.0,"latitude":40.752409,"longitude":-73.988676},{"index":11989,"name":"PEX Card","category_code":"software","Lugares":{"type":"Point","coordinates":[-73.987871,40.752539]},"clean_state":"success","founded_year":2007.0,"latitude":40.752539,"longitude":-73.987871},{"index":1336,"name":"Oddcast","category_code":"web","Lugares":{"type":"Point","coordinates":[-73.988477,40.752325]},"clean_state":"success","founded_year":1999.0,"latitude":40.752325,"longitude":-73.988477},{"index":2723,"name":"Salesconx","category_code":"enterprise","Lugares":{"type":"Point","coordinates":[-73.98459,40.759243]},"clean_state":"success","founded_year":2008.0,"latitude":40.759243,"longitude":-73.98459},{"index":2275,"name":"Social Sauce","category_code":"network_hosting","Lugares":{"type":"Point","coordinates":[-73.990675,40.752143]},"clean_state":"success","founded_year":2006.0,"latitude":40.752143,"longitude":-73.990675},{"index":4690,"name":"LivePerson","category_code":"software","Lugares":{"type":"Point","coordinates":[-73.99031,40.751969]},"clean_state":"success","founded_year":1995.0,"latitude":40.751969,"longitude":-73.99031},{"index":15008,"name":"Stream57","category_code":"software","Lugares":{"type":"Point","coordinates":[-73.99031,40.751969]},"clean_state":"success","founded_year":1998.0,"latitude":40.751969,"longitude":-73.99031},{"index":4222,"name":"TradingUp Online","category_code":"advertising","Lugares":{"type":"Point","coordinates":[-73.992544,40.752404]},"clean_state":"success","founded_year":2007.0,"latitude":40.752404,"longitude":-73.992544},{"index":13033,"name":"ScienCentral","category_code":"other","Lugares":{"type":"Point","coordinates":[-73.99211,40.752224]},"clean_state":"success","founded_year":1996.0,"latitude":40.752224,"longitude":-73.99211},{"index":920,"name":"SeeToo","category_code":"enterprise","Lugares":{"type":"Point","coordinates":[-73.996272,40.755861]},"clean_state":"success","founded_year":2007.0,"latitude":40.755861,"longitude":-73.996272},{"index":17084,"name":"Optimum Energy","category_code":"cleantech","Lugares":{"type":"Point","coordinates":[-73.9875922,40.7518919]},"clean_state":"success","founded_year":2005.0,"latitude":40.7518919,"longitude":-73.9875922},{"index":1839,"name":"Giant Realm","category_code":"web","Lugares":{"type":"Point","coordinates":[-73.9827553,40.7566658]},"clean_state":"success","founded_year":2007.0,"latitude":40.7566658,"longitude":-73.9827553},{"index":233,"name":"Lotame","category_code":"advertising","Lugares":{"type":"Point","coordinates":[-73.995487,40.753631]},"clean_state":"success","founded_year":2006.0,"latitude":40.753631,"longitude":-73.995487},{"index":9943,"name":"Interpublic Group","category_code":"advertising","Lugares":{"type":"Point","coordinates":[-73.982666,40.754683]},"clean_state":"success","founded_year":1902.0,"latitude":40.754683,"longitude":-73.982666},{"index":11770,"name":"Wall Street Journal","category_code":null,"Lugares":{"type":"Point","coordinates":[-73.9824129,40.7587059]},"clean_state":"success","founded_year":1889.0,"latitude":40.7587059,"longitude":-73.9824129},{"index":6910,"name":"Petciety","category_code":"web","Lugares":{"type":"Point","coordinates":[-73.995886,40.753207]},"clean_state":"success","founded_year":2006.0,"latitude":40.753207,"longitude":-73.995886},{"index":7813,"name":"Petciety","category_code":"web","Lugares":{"type":"Point","coordinates":[-73.995886,40.753207]},"clean_state":"success","founded_year":2006.0,"latitude":40.753207,"longitude":-73.995886},{"index":12034,"name":"WeMix","category_code":"web","Lugares":{"type":"Point","coordinates":[-73.9815358,40.7554379]},"clean_state":"success","founded_year":2007.0,"latitude":40.7554379,"longitude":-73.9815358},{"index":7351,"name":"Dada Entertainment","category_code":"mobile","Lugares":{"type":"Point","coordinates":[-73.981847,40.7543]},"clean_state":"success","founded_year":2007.0,"latitude":40.7543,"longitude":-73.981847},{"index":6448,"name":"Dada Entertainment","category_code":"mobile","Lugares":{"type":"Point","coordinates":[-73.981847,40.7543]},"clean_state":"success","founded_year":2007.0,"latitude":40.7543,"longitude":-73.981847},{"index":98,"name":"KickApps","category_code":"enterprise","Lugares":{"type":"Point","coordinates":[-73.9843328,40.7516611]},"clean_state":"success","founded_year":2004.0,"latitude":40.7516611,"longitude":-73.9843328},{"index":915,"name":"Fotki","category_code":"web","Lugares":{"type":"Point","coordinates":[-73.985833,40.750823]},"clean_state":"success","founded_year":1998.0,"latitude":40.750823,"longitude":-73.985833},{"index":5338,"name":"Converseon","category_code":"consulting","Lugares":{"type":"Point","coordinates":[-73.985833,40.750823]},"clean_state":"success","founded_year":2001.0,"latitude":40.750823,"longitude":-73.985833},{"index":2489,"name":"Cellfish","category_code":"web","Lugares":{"type":"Point","coordinates":[-73.983754,40.761855]},"clean_state":"success","founded_year":2004.0,"latitude":40.761855,"longitude":-73.983754},{"index":17269,"name":"Connectiva Systems","category_code":"software","Lugares":{"type":"Point","coordinates":[-73.980861,40.755531]},"clean_state":"success","founded_year":2000.0,"latitude":40.755531,"longitude":-73.980861},{"index":5022,"name":"Deloitte","category_code":"consulting","Lugares":{"type":"Point","coordinates":[-73.9837603,40.7618675]},"clean_state":"success","founded_year":1900.0,"latitude":40.7618675,"longitude":-73.9837603},{"index":2487,"name":"Odeo","category_code":"web","Lugares":{"type":"Point","coordinates":[-73.981237,40.753918]},"clean_state":"success","founded_year":2005.0,"latitude":40.753918,"longitude":-73.981237},{"index":9795,"name":"Behind the Burner","category_code":"web","Lugares":{"type":"Point","coordinates":[-73.981237,40.753918]},"clean_state":"success","founded_year":2008.0,"latitude":40.753918,"longitude":-73.981237},{"index":16141,"name":"YEAONAY","category_code":"web","Lugares":{"type":"Point","coordinates":[-73.9952442,40.751234]},"clean_state":"success","founded_year":2007.0,"latitude":40.751234,"longitude":-73.9952442},{"index":14473,"name":"Altaine","category_code":"mobile","Lugares":{"type":"Point","coordinates":[-73.987977,40.749884]},"clean_state":"success","founded_year":2002.0,"latitude":40.749884,"longitude":-73.987977},{"index":13533,"name":"Crispy Gamer","category_code":"games_video","Lugares":{"type":"Point","coordinates":[-73.985273,40.750597]},"clean_state":"success","founded_year":2008.0,"latitude":40.750597,"longitude":-73.985273},{"index":786,"name":"Peer39","category_code":"advertising","Lugares":{"type":"Point","coordinates":[-73.980246,40.755446]},"clean_state":"success","founded_year":2006.0,"latitude":40.755446,"longitude":-73.980246},{"index":2368,"name":"Meck Technology","category_code":"software","Lugares":{"type":"Point","coordinates":[-73.99726,40.76126]},"clean_state":"success","founded_year":2003.0,"latitude":40.76126,"longitude":-73.99726},{"index":7867,"name":"LogLogic","category_code":"security","Lugares":{"type":"Point","coordinates":[-73.9916486,40.749577]},"clean_state":"success","founded_year":2002.0,"latitude":40.749577,"longitude":-73.9916486},{"index":13124,"name":"CollegeClickTV","category_code":"games_video","Lugares":{"type":"Point","coordinates":[-73.9916617,40.7495594]},"clean_state":"success","founded_year":2008.0,"latitude":40.7495594,"longitude":-73.9916617},{"index":10007,"name":"DreamFace Interactive","category_code":"enterprise","Lugares":{"type":"Point","coordinates":[-73.980737,40.7537339]},"clean_state":"success","founded_year":2007.0,"latitude":40.7537339,"longitude":-73.980737},{"index":7977,"name":"F5 Networks","category_code":"other","Lugares":{"type":"Point","coordinates":[-73.998135,40.75304]},"clean_state":"success","founded_year":1996.0,"latitude":40.75304,"longitude":-73.998135},{"index":2531,"name":"Velocix","category_code":"games_video","Lugares":{"type":"Point","coordinates":[-73.980068,40.758504]},"clean_state":"success","founded_year":2002.0,"latitude":40.758504,"longitude":-73.980068},{"index":2658,"name":"Associated Press","category_code":"other","Lugares":{"type":"Point","coordinates":[-73.998615,40.7535]},"clean_state":"success","founded_year":1846.0,"latitude":40.7535,"longitude":-73.998615},{"index":13877,"name":"33Across","category_code":"advertising","Lugares":{"type":"Point","coordinates":[-73.999003,40.75406]},"clean_state":"success","founded_year":2007.0,"latitude":40.75406,"longitude":-73.999003},{"index":2714,"name":"Visible World","category_code":"advertising","Lugares":{"type":"Point","coordinates":[-73.999003,40.75406]},"clean_state":"success","founded_year":2000.0,"latitude":40.75406,"longitude":-73.999003},{"index":1001,"name":"GoLark","category_code":"web","Lugares":{"type":"Point","coordinates":[-73.996122,40.7508]},"clean_state":"success","founded_year":2007.0,"latitude":40.7508,"longitude":-73.996122},{"index":8015,"name":"Unigo","category_code":"education","Lugares":{"type":"Point","coordinates":[-73.9793465,40.7568493]},"clean_state":"success","founded_year":2008.0,"latitude":40.7568493,"longitude":-73.9793465},{"index":45,"name":"Facebook","category_code":"social","Lugares":{"type":"Point","coordinates":[-73.9792469,40.7557162]},"clean_state":"success","founded_year":2004.0,"latitude":40.7557162,"longitude":-73.9792469},{"index":16852,"name":"Strategist News","category_code":"web","Lugares":{"type":"Point","coordinates":[-73.9918181,40.7489381]},"clean_state":"success","founded_year":2009.0,"latitude":40.7489381,"longitude":-73.9918181},{"index":16354,"name":"ArtNeighbor","category_code":"web","Lugares":{"type":"Point","coordinates":[-73.9918181,40.7489381]},"clean_state":"success","founded_year":2009.0,"latitude":40.7489381,"longitude":-73.9918181},{"index":4138,"name":"Marvel Entertainment","category_code":"games_video","Lugares":{"type":"Point","coordinates":[-73.982713,40.750576]},"clean_state":"success","founded_year":1988.0,"latitude":40.750576,"longitude":-73.982713},{"index":16823,"name":"Synesis IT","category_code":"consulting","Lugares":{"type":"Point","coordinates":[-73.987106,40.748873]},"clean_state":"success","founded_year":1995.0,"latitude":40.748873,"longitude":-73.987106},{"index":443,"name":"Adknowledge","category_code":"advertising","Lugares":{"type":"Point","coordinates":[-73.992463,40.748901]},"clean_state":"success","founded_year":2004.0,"latitude":40.748901,"longitude":-73.992463},{"index":12733,"name":"TheMarkets","category_code":"web","Lugares":{"type":"Point","coordinates":[-73.9821315,40.762674]},"clean_state":"success","founded_year":2000.0,"latitude":40.762674,"longitude":-73.9821315},{"index":2853,"name":"Scanbuy","category_code":"enterprise","Lugares":{"type":"Point","coordinates":[-73.9815333,40.7512062]},"clean_state":"success","founded_year":2000.0,"latitude":40.7512062,"longitude":-73.9815333},{"index":4468,"name":"BountyJobs","category_code":"web","Lugares":{"type":"Point","coordinates":[-73.97917,40.754211]},"clean_state":"success","founded_year":2006.0,"latitude":40.754211,"longitude":-73.97917},{"index":13590,"name":"Workbridge Associates","category_code":"other","Lugares":{"type":"Point","coordinates":[-73.9789451,40.7543489]},"clean_state":"success","founded_year":1989.0,"latitude":40.7543489,"longitude":-73.9789451},{"index":10771,"name":"Napier Partners","category_code":"other","Lugares":{"type":"Point","coordinates":[-73.9789451,40.7543489]},"clean_state":"success","founded_year":1989.0,"latitude":40.7543489,"longitude":-73.9789451},{"index":10766,"name":"Atlantis Partners","category_code":"public_relations","Lugares":{"type":"Point","coordinates":[-73.9789451,40.7543489]},"clean_state":"success","founded_year":2006.0,"latitude":40.7543489,"longitude":-73.9789451},{"index":10765,"name":"MacArthur Associates","category_code":"other","Lugares":{"type":"Point","coordinates":[-73.9789451,40.7543489]},"clean_state":"success","founded_year":1989.0,"latitude":40.7543489,"longitude":-73.9789451},{"index":13932,"name":"IrishCentral","category_code":"public_relations","Lugares":{"type":"Point","coordinates":[-73.989276,40.74828]},"clean_state":"success","founded_year":2009.0,"latitude":40.74828,"longitude":-73.989276},{"index":16651,"name":"Springo","category_code":"web","Lugares":{"type":"Point","coordinates":[-73.978432,40.758062]},"clean_state":"success","founded_year":1999.0,"latitude":40.758062,"longitude":-73.978432},{"index":5075,"name":"Unisfair","category_code":"enterprise","Lugares":{"type":"Point","coordinates":[-73.988154,40.7482]},"clean_state":"success","founded_year":2000.0,"latitude":40.7482,"longitude":-73.988154},{"index":10568,"name":"LucidMedia","category_code":"advertising","Lugares":{"type":"Point","coordinates":[-73.980739,40.751336]},"clean_state":"success","founded_year":1999.0,"latitude":40.751336,"longitude":-73.980739},{"index":15765,"name":"TxVia","category_code":"finance","Lugares":{"type":"Point","coordinates":[-73.978852,40.753881]},"clean_state":"success","founded_year":2006.0,"latitude":40.753881,"longitude":-73.978852},{"index":14874,"name":"TMP Directional Marketing","category_code":"advertising","Lugares":{"type":"Point","coordinates":[-73.9790822,40.7530803]},"clean_state":"success","founded_year":1967.0,"latitude":40.7530803,"longitude":-73.9790822},{"index":6459,"name":"Jumptap","category_code":"mobile","Lugares":{"type":"Point","coordinates":[-73.980305,40.751478]},"clean_state":"success","founded_year":2005.0,"latitude":40.751478,"longitude":-73.980305},{"index":7364,"name":"Jumptap","category_code":"mobile","Lugares":{"type":"Point","coordinates":[-73.980305,40.751478]},"clean_state":"success","founded_year":2005.0,"latitude":40.751478,"longitude":-73.980305},{"index":9811,"name":"BarterQuest","category_code":"web","Lugares":{"type":"Point","coordinates":[-73.994203,40.748634]},"clean_state":"success","founded_year":2006.0,"latitude":40.748634,"longitude":-73.994203},{"index":17931,"name":"Aleri","category_code":"software","Lugares":{"type":"Point","coordinates":[-73.9783534,40.7592189]},"clean_state":"success","founded_year":1999.0,"latitude":40.7592189,"longitude":-73.9783534},{"index":9023,"name":"Warner Music Group","category_code":"other","Lugares":{"type":"Point","coordinates":[-73.9783534,40.7592189]},"clean_state":"success","founded_year":1958.0,"latitude":40.7592189,"longitude":-73.9783534},{"index":9293,"name":"RankAbove","category_code":"software","Lugares":{"type":"Point","coordinates":[-73.992402,40.748047]},"clean_state":"success","founded_year":2007.0,"latitude":40.748047,"longitude":-73.992402}]